name	class	type	lon	lat	place_rank	importance	display_name	west	south	east	north
	boundary	administrative	8.683299978076832	47.5812220550869	, Adlikon, Bezirk Andelfingen, Zürich, Schweiz, Suisse, Svizzera, Svizra	8.682430151604734	47.58058042039897	8.684157158934596	47.58186218103228
	place	hamlet	6.5478947732566155	46.70391448527208	19	0.275	Chavornay, District du Jura-Nord vaudois, Vaud, Schweiz, Suisse, Svizzera, Svizra	6.5478947732566155	46.70391448527208	6.5478947732566155	46.70391448527208
	place	hamlet	6.916114545697127	46.22292416843997	19	0.275	Troistorrents, Monthey, Valais - Wallis, Schweiz, Suisse, Svizzera, Svizra	6.916114545697127	46.22292416843997	6.916114545697127	46.22292416843997
	place	hamlet	7.017081526401738	47.269984555895704	19	0.275	Le Bémont (JU), District des Franches-Montagnes, Jura, Schweiz, Suisse, Svizzera, Svizra	7.017081526401738	47.269984555895704	7.017081526401738	47.269984555895704
	place	hamlet	7.027593789514993	47.321287209645156	19	0.275	, Soubey, District des Franches-Montagnes, Jura, Schweiz, Suisse, Svizzera, Svizra	7.025988555809079	47.32073203428846	7.0284568586556295	47.3217497649718
	place	hamlet	7.12460659196836	46.093318487705275	19	0.275	Vollèges, Entremont, Valais - Wallis, Schweiz, Suisse, Svizzera, Svizra	7.12460659196836	46.093318487705275	7.12460659196836	46.093318487705275
	place	hamlet	7.205378382804754	47.21529414643111	19	0.275	Tavannes, Verwaltungskreis Berner Jura, Verwaltungsregion Berner Jura, Bern - Berne, Schweiz, Suisse, Svizzera, Svizra	7.205378382804754	47.21529414643111	7.205378382804754	47.21529414643111
	place	hamlet	7.408359663015517	46.90141131859836	19	0.275	Köniz, Verwaltungskreis Bern-Mittelland, Verwaltungsregion Bern-Mittelland, Bern - Berne, Schweiz, Suisse, Svizzera, Svizra	7.408359663015517	46.90141131859836	7.408359663015517	46.90141131859836
	place	hamlet	7.490436180899933	46.05905435717937	19	0.275	Evolène, Hérens, Valais - Wallis, Schweiz, Suisse, Svizzera, Svizra	7.490436180899933	46.05905435717937	7.490436180899933	46.05905435717937
	place	hamlet	7.627853699866575	47.54827576928744	19	0.275	, Birsfelden, Basel-Landschaft, Schweiz, Suisse, Svizzera, Svizra	7.627665286389913	47.548211270542524	7.628042136756591	47.54833079648178
	place	hamlet	7.628414796171712	47.54766569246496	19	0.275	Birsfelden, Basel-Landschaft, Schweiz, Suisse, Svizzera, Svizra	7.628414796171712	47.54766569246496	7.628414796171712	47.54766569246496
	place	hamlet	7.6317031844247385	47.54902238731265	19	0.275	Muttenz, Basel-Landschaft, Schweiz, Suisse, Svizzera, Svizra	7.6317031844247385	47.54902238731265	7.6317031844247385	47.54902238731265
	place	hamlet	7.796797375922296	46.15981074256675	19	0.275	, St. Niklaus, Visp, Valais - Wallis, Schweiz, Suisse, Svizzera, Svizra	7.79501559912427	46.1590419963172	7.79821907869814	46.1606019523168
	place	hamlet	8.598794400352517	47.186153244672425	19	0.275	, Menzingen, Zug, Schweiz, Suisse, Svizzera, Svizra	8.597822131323852	47.18580443177185	8.599488872769912	47.186779666206114
	place	hamlet	8.599962992371326	47.18723220515842	19	0.275	, Menzingen, Zug, Schweiz, Suisse, Svizzera, Svizra	8.598716145116356	47.18639451775527	8.601218059394597	47.18812487784642
	place	hamlet	8.603162868493156	47.17918955951588	19	0.275	, Menzingen, Zug, Schweiz, Suisse, Svizzera, Svizra	8.601587785143579	47.17785076003146	8.6056552712966	47.18056171897488
	place	hamlet	8.638963194622963	47.48608619678205	19	0.275	, Oberembrach, Bezirk Bülach, Zürich, Schweiz, Suisse, Svizzera, Svizra	8.637288573873436	47.485168043108416	8.640553157521481	47.48715991857857
	place	hamlet	8.644710458493776	47.17487317274812	19	0.275	, Hütten, Bezirk Horgen, Zürich, Schweiz, Suisse, Svizzera, Svizra	8.642932360737262	47.17413673873531	8.646094768985591	47.17556895453053
	place	hamlet	8.716278958828383	46.54695764865387	19	0.275	Quinto, Circolo di Quinto, Distretto di Leventina, Ticino, Schweiz, Suisse, Svizzera, Svizra	8.716278958828383	46.54695764865387	8.716278958828383	46.54695764865387
	place	hamlet	8.780034530376422	47.28934243554639	19	0.275	, Gossau (ZH), Bezirk Hinwil, Zürich, Schweiz, Suisse, Svizzera, Svizra	8.778538394496735	47.28850487387179	8.781558142753058	47.290113277271765
	place	hamlet	8.80933804437004	47.371805359167084	19	0.275	, Hittnau, Bezirk Pfäffikon, Zürich, Schweiz, Suisse, Svizzera, Svizra	8.808414263435195	47.37063352719395	8.810255180829188	47.372836458986
	place	hamlet	8.869977885460143	47.62479022386399	19	0.275	, Eschenz, Bezirk Frauenfeld, Thurgau, Schweiz, Suisse, Svizzera, Svizra	8.869037551604094	47.62420805877905	8.87114023583419	47.62544715552521
	place	hamlet	8.897918092358427	47.539174321636	19	0.275	, Frauenfeld, Bezirk Frauenfeld, Thurgau, Schweiz, Suisse, Svizzera, Svizra	8.896955491780233	47.53877886344428	8.89876397120895	47.53958469961536
	place	hamlet	8.905483729537394	47.51839679904482	19	0.275	, Aadorf, Bezirk Münchwilen, Thurgau, Schweiz, Suisse, Svizzera, Svizra	8.905216444090968	47.518091572040746	8.905720783204913	47.51881979178848
	place	hamlet	8.92089273302015	47.5430135266561	19	0.275	, Frauenfeld, Bezirk Frauenfeld, Thurgau, Schweiz, Suisse, Svizzera, Svizra	8.919622756351401	47.541179440513176	8.922921873440487	47.544921876461125
	place	hamlet	8.927044536527536	46.836805285317546	19	0.275	, Glarus Süd, Glarus, Schweiz, Suisse, Svizzera, Svizra	8.92653237823248	46.836455424679066	8.927589839136857	46.83710242378504
	place	hamlet	8.950181117291224	47.456819650294776	19	0.275	, Eschlikon, Bezirk Münchwilen, Thurgau, Schweiz, Suisse, Svizzera, Svizra	8.949750920575385	47.456608635882375	8.950568072315775	47.457085649991974
	place	hamlet	9.000357407234766	47.57133375627505	19	0.275	, Hüttlingen, Bezirk Frauenfeld, Thurgau, Schweiz, Suisse, Svizzera, Svizra	8.998435025863898	47.57022265119035	9.002254575321048	47.57242197876406
	place	hamlet	9.01214875323433	47.568748609698275	19	0.275	, Amlikon-Bissegg, Bezirk Weinfelden, Thurgau, Schweiz, Suisse, Svizzera, Svizra	9.010580152105236	47.56799398695558	9.013447182085741	47.56962879335051
	place	hamlet	9.017646590268509	47.56410696317788	19	0.275	, Amlikon-Bissegg, Bezirk Weinfelden, Thurgau, Schweiz, Suisse, Svizzera, Svizra	9.016331227329687	47.56289175485579	9.018851162699773	47.56525084150397
	place	hamlet	9.019724534637025	47.56677618024348	19	0.275	, Amlikon-Bissegg, Bezirk Weinfelden, Thurgau, Schweiz, Suisse, Svizzera, Svizra	9.018837164921479	47.56611568627339	9.020852258263405	47.567368529340776
	place	hamlet	9.022501130207548	47.56444659789446	19	0.275	, Amlikon-Bissegg, Bezirk Weinfelden, Thurgau, Schweiz, Suisse, Svizzera, Svizra	9.022140137686021	47.56400814053946	9.023510746492944	47.56482386735631
	place	hamlet	9.023672625792559	47.57896782604742	19	0.275	, Amlikon-Bissegg, Bezirk Weinfelden, Thurgau, Schweiz, Suisse, Svizzera, Svizra	9.023119730709908	47.57869055269043	9.024861657827444	47.57924509940439
	place	hamlet	9.063110577619597	47.56007028051903	19	0.275	, Amlikon-Bissegg, Bezirk Weinfelden, Thurgau, Schweiz, Suisse, Svizzera, Svizra	9.062407471083844	47.559656926964045	9.063791574754875	47.560524873037636
	place	hamlet	9.30389969268624	47.51980885636294	19	0.275	, Muolen, Wahlkreis St. Gallen, Sankt Gallen, Schweiz, Suisse, Svizzera, Svizra	9.303106980299276	47.51894811872604	9.305006571015497	47.52060555625959
	place	hamlet	9.381884716370706	47.49868495162311	19	0.275	Roggwil (TG), Bezirk Arbon, Thurgau, Schweiz, Suisse, Svizzera, Svizra	9.381884716370706	47.49868495162311	9.381884716370706	47.49868495162311
	place	hamlet	9.409028252512657	47.48575662034926	19	0.275	Berg (SG), Wahlkreis Rorschach, Sankt Gallen, Schweiz, Suisse, Svizzera, Svizra	9.409028252512657	47.48575662034926	9.409028252512657	47.48575662034926
	place	hamlet	9.513099219600491	46.68224366135023	19	0.275	Vaz/Obervaz, Albula, Graubünden - Grigioni - Grischun, Schweiz, Suisse, Svizzera, Svizra	9.513099219600491	46.68224366135023	9.513099219600491	46.68224366135023
	place	hamlet	9.531970487862452	46.679456930002104	19	0.275	Albula/Alvra, Albula, Graubünden - Grigioni - Grischun, Schweiz, Suisse, Svizzera, Svizra	9.531970487862452	46.679456930002104	9.531970487862452	46.679456930002104
	place	neighbourhood	9.339254504283925	47.583998686241685	22	0.19999999999999996	, Uttwil, Bezirk Arbon, Thurgau, Schweiz, Suisse, Svizzera, Svizra	9.338170576749889	47.583406965787155	9.340134372844403	47.58438513388748
	place	suburb	7.242764353167644	47.134904654198436	20	0.25	Biel/Bienne, Verwaltungskreis Biel/Bienne, Verwaltungsregion Seeland, Bern - Berne, Schweiz, Suisse, Svizzera, Svizra	7.242764353167644	47.134904654198436	7.242764353167644	47.134904654198436
	place	suburb	7.246364296761642	47.1416462189209	20	0.25	Biel/Bienne, Verwaltungskreis Biel/Bienne, Verwaltungsregion Seeland, Bern - Berne, Schweiz, Suisse, Svizzera, Svizra	7.246364296761642	47.1416462189209	7.246364296761642	47.1416462189209
	place	suburb	7.2636076317892275	47.14892439308453	20	0.25	Biel/Bienne, Verwaltungskreis Biel/Bienne, Verwaltungsregion Seeland, Bern - Berne, Schweiz, Suisse, Svizzera, Svizra	7.2636076317892275	47.14892439308453	7.2636076317892275	47.14892439308453
	place	suburb	8.69778957007503	47.25071581778527	20	0.25	Männedorf, Bezirk Meilen, Zürich, Schweiz, Suisse, Svizzera, Svizra	8.69778957007503	47.25071581778527	8.69778957007503	47.25071581778527
	place	suburb	9.163851085397262	47.66436877436851	20	0.25	, Konstanz-Paradies	9.156752329186219	47.6593732438961	9.169872270766632	47.66950302533841
	place	village	7.1417362472408366	47.19344759590919	19	0.275	, Corgémont, Verwaltungskreis Berner Jura, Verwaltungsregion Berner Jura, Bern - Berne, Schweiz, Suisse, Svizzera, Svizra	7.129829188197703	47.18839913371827	7.152471726154517	47.198514917382234
	place	village	7.171778623095886	47.19538167815696	19	0.275	, Sonceboz-Sombeval, Verwaltungskreis Berner Jura, Verwaltungsregion Berner Jura, Bern - Berne, Schweiz, Suisse, Svizzera, Svizra	7.161179266266316	47.190887050218194	7.184058257711655	47.19979684565359
	place	village	7.181777297554966	47.24363160086109	19	0.275	, Saicourt, Verwaltungskreis Berner Jura, Verwaltungsregion Berner Jura, Bern - Berne, Schweiz, Suisse, Svizzera, Svizra	7.176239534612364	47.24193476838267	7.189092680214742	47.24535802145774
	place	village	7.537495957172467	46.269201242594114	19	0.275	Chalais, Sierre, Valais - Wallis, Schweiz, Suisse, Svizzera, Svizra	7.537495957172467	46.269201242594114	7.537495957172467	46.269201242594114
	place	village	8.4996797777396	46.50005360814232	19	0.275	, Bedretto, Circolo di Airolo, Distretto di Leventina, Ticino, Schweiz, Suisse, Svizzera, Svizra	8.498729595625946	46.499619341738885	8.500377142513713	46.50057202885361
	place	village	8.583259701337735	47.03331246733611	19	0.275	, Lauerz, Schwyz, Schwyz, Schweiz, Suisse, Svizzera, Svizra	8.577958194269087	47.02971788816014	8.591787831591176	47.03716269455887
	place	village	8.70068656211824	46.177790930702336	19	0.275	, Centovalli, Circolo della Melezza, Distretto di Locarno, Ticino, Schweiz, Suisse, Svizzera, Svizra	8.698836218324317	46.17628885174412	8.703522288931538	46.179179518691555
	place	village	8.712567254426045	46.17844191121229	19	0.275	, Centovalli, Circolo della Melezza, Distretto di Locarno, Ticino, Schweiz, Suisse, Svizzera, Svizra	8.706671369953826	46.177572624034184	8.719030989097348	46.17956366131398
	place	village	8.721835493783924	46.184658936434154	19	0.275	, Terre di Pedemonte, Circolo della Melezza, Distretto di Locarno, Ticino, Schweiz, Suisse, Svizzera, Svizra	8.715322751314346	46.18229062969247	8.727124722439754	46.186905873217874
	place	village	8.732020806801412	46.18467628697371	19	0.275	, Terre di Pedemonte, Circolo della Melezza, Distretto di Locarno, Ticino, Schweiz, Suisse, Svizzera, Svizra	8.725676329571371	46.18079999203211	8.73791793151824	46.18752605023367
	place	village	8.743100908111877	46.18529348841389	19	0.275	, Terre di Pedemonte, Circolo della Melezza, Distretto di Locarno, Ticino, Schweiz, Suisse, Svizzera, Svizra	8.737199099502078	46.1826982416438	8.749708838531433	46.18791195305581
	place	village	8.800810437758788	47.284700579478425	19	0.275	, Gossau (ZH), Bezirk Hinwil, Zürich, Schweiz, Suisse, Svizzera, Svizra	8.798205692103068	47.28263376979388	8.804073946333887	47.28683628840703
	place	village	9.260922483866715	47.61410966756415	19	0.275	, Altnau, Bezirk Kreuzlingen, Thurgau, Schweiz, Suisse, Svizzera, Svizra	9.251491220556773	47.60560274830482	9.269338974622201	47.62165032102567
	place	village	9.342579122543043	46.750800169415726	19	0.275	Safiental, Surselva, Graubünden - Grigioni - Grischun, Schweiz, Suisse, Svizzera, Svizra	9.342579122543043	46.750800169415726	9.342579122543043	46.750800169415726
2. Altmatt	place	hamlet	8.685225097217938	47.11940768869707	19	0.275	Rothenthurm, Schwyz, Schwyz, Schweiz, Suisse, Svizzera, Svizra	8.685225097217938	47.11940768869707	8.685225097217938	47.11940768869707
Aachen	place	hamlet	9.429825263028732	47.48063846263346	19	0.275	Mörschwil, Wahlkreis Rorschach, Sankt Gallen, Schweiz, Suisse, Svizzera, Svizra	9.429825263028732	47.48063846263346	9.429825263028732	47.48063846263346
Aadorf	boundary	administrative	8.917266890063622	47.499560148042974	16	0.35	Aadorf, Bezirk Münchwilen, Thurgau, Schweiz, Suisse, Svizzera, Svizra	8.880981931264415	47.45973625923254	8.942563690061178	47.54046873894312
Aadorf	place	village	8.902952575862827	47.49157818737938	19	0.275	Aadorf, Bezirk Münchwilen, Thurgau, Schweiz, Suisse, Svizzera, Svizra	8.902952575862827	47.49157818737938	8.902952575862827	47.49157818737938
Aahorn	place	neighbourhood	8.852510366383656	47.20219775799862	22	0.19999999999999996	Lachen, March, Schwyz, Schweiz, Suisse, Svizzera, Svizra	8.852510366383656	47.20219775799862	8.852510366383656	47.20219775799862
Aarau	boundary	administrative	8.046090690115918	47.39102397349656	16	0.35	Aarau, Bezirk Aarau, Aargau, Schweiz, Suisse, Svizzera, Svizra	8.026443298506251	47.36971989974802	8.113455583893426	47.412351768031066
Aarau	place	town	8.044444776675903	47.39271456145715	18	0.3	Aarau, Bezirk Aarau, Aargau, Schweiz, Suisse, Svizzera, Svizra	8.044444776675903	47.39271456145715	8.044444776675903	47.39271456145715
Aarberg	boundary	administrative	7.28352421901835	47.04394885100621	16	0.35	Aarberg, Verwaltungskreis Seeland, Verwaltungsregion Seeland, Bern - Berne, Schweiz, Suisse, Svizzera, Svizra	7.2571082202494495	47.02678749099165	7.30801252405058	47.06167557038981
Aarberg	place	village	7.275300386716281	47.04433458619025	19	0.275	Aarberg, Verwaltungskreis Seeland, Verwaltungsregion Seeland, Bern - Berne, Schweiz, Suisse, Svizzera, Svizra	7.275300386716281	47.04433458619025	7.275300386716281	47.04433458619025
Aarburg	boundary	administrative	7.9066278097542675	47.32501288178676	16	0.35	Aarburg, Bezirk Zofingen, Aargau, Schweiz, Suisse, Svizzera, Svizra	7.891749299631102	47.307387038607864	7.927213299596303	47.341906146628304
Aarburg	place	village	7.899359816255555	47.32064167737227	19	0.275	Aarburg, Bezirk Zofingen, Aargau, Schweiz, Suisse, Svizzera, Svizra	7.899359816255555	47.32064167737227	7.899359816255555	47.32064167737227
Aargau	boundary	administrative	8.212960433887616	47.37919132460554	8	0.55	Aargau, Schweiz, Suisse, Svizzera, Svizra	7.713468482244309	47.137480077767535	8.455099861770066	47.62111237047998
Aarwangen	boundary	administrative	7.765990466718197	47.23533091832934	16	0.35	Aarwangen, Verwaltungskreis Oberaargau, Verwaltungsregion Emmental-Oberaargau, Bern - Berne, Schweiz, Suisse, Svizzera, Svizra	7.732545190953033	47.21867188577198	7.793428318120305	47.252165719396245
Aarwangen	place	village	7.770146743865553	47.23908198763755	19	0.275	Aarwangen, Verwaltungskreis Oberaargau, Verwaltungsregion Emmental-Oberaargau, Bern - Berne, Schweiz, Suisse, Svizzera, Svizra	7.770146743865553	47.23908198763755	7.770146743865553	47.23908198763755
Aarzälg	place	hamlet	7.855215936459018	46.687914773218374	19	0.275	Interlaken, Verwaltungskreis Interlaken-Oberhasli, Verwaltungsregion Oberland, Bern - Berne, Schweiz, Suisse, Svizzera, Svizra	7.855215936459018	46.687914773218374	7.855215936459018	46.687914773218374
Aatal	place	hamlet	8.917165936712223	47.299297160940924	19	0.275	Wald (ZH), Bezirk Hinwil, Zürich, Schweiz, Suisse, Svizzera, Svizra	8.917165936712223	47.299297160940924	8.917165936712223	47.299297160940924
Aathal	place	hamlet	8.768271568937564	47.33562156326686	19	0.275	Seegräben, Bezirk Hinwil, Zürich, Schweiz, Suisse, Svizzera, Svizra	8.768271568937564	47.33562156326686	8.768271568937564	47.33562156326686
Aawangen	place	hamlet	8.899930396854584	47.51278448622741	19	0.275	Aadorf, Bezirk Münchwilen, Thurgau, Schweiz, Suisse, Svizzera, Svizra	8.899930396854584	47.51278448622741	8.899930396854584	47.51278448622741
Äberli	place	neighbourhood	8.709484169020783	47.25056661990879	22	0.19999999999999996	Männedorf, Bezirk Meilen, Zürich, Schweiz, Suisse, Svizzera, Svizra	8.709484169020783	47.25056661990879	8.709484169020783	47.25056661990879
Abfrutt	place	hamlet	8.569415442373668	46.66534155360083	19	0.275	Göschenen, Uri, Schweiz, Suisse, Svizzera, Svizra	8.569415442373668	46.66534155360083	8.569415442373668	46.66534155360083
Abländschen	place	village	7.292084393449954	46.578614839654804	19	0.275	Saanen, Verwaltungskreis Obersimmental-Saanen, Verwaltungsregion Oberland, Bern - Berne, Schweiz, Suisse, Svizzera, Svizra	7.292084393449954	46.578614839654804	7.292084393449954	46.578614839654804
Äbmete	place	hamlet	8.200601560636187	46.448678660477974	19	0.275	Blitzingen, Goms, Valais - Wallis, Schweiz, Suisse, Svizzera, Svizra	8.200601560636187	46.448678660477974	8.200601560636187	46.448678660477974
Äbnit	place	hamlet	7.804109964067522	46.87731376606966	19	0.275	Eggiwil, Verwaltungskreis Emmental, Verwaltungsregion Emmental-Oberaargau, Bern - Berne, Schweiz, Suisse, Svizzera, Svizra	7.804109964067522	46.87731376606966	7.804109964067522	46.87731376606966
Abtwil	boundary	administrative	8.354982298785021	47.170945287192474	16	0.35	Abtwil, Bezirk Muri, Aargau, Schweiz, Suisse, Svizzera, Svizra	8.337923537613364	47.156744876383456	8.36761869271939	47.18561357583659
Abtwil	place	village	8.354671250706275	47.174495148915014	19	0.275	Abtwil, Bezirk Muri, Aargau, Schweiz, Suisse, Svizzera, Svizra	8.354671250706275	47.174495148915014	8.354671250706275	47.174495148915014
Abtwil	place	village	9.321035619730338	47.422514490352846	19	0.275	Gaiserwald, Wahlkreis St. Gallen, Sankt Gallen, Schweiz, Suisse, Svizzera, Svizra	9.321035619730338	47.422514490352846	9.321035619730338	47.422514490352846
Äbunacher	place	hamlet	8.052698017635691	46.36394767767758	19	0.275	Mörel-Filet, Östlich Raron, Valais - Wallis, Schweiz, Suisse, Svizzera, Svizra	8.052698017635691	46.36394767767758	8.052698017635691	46.36394767767758
Acacias	boundary	administrative	6.133897757165361	46.19236236645527	20	0.25	Acacias, Genève, Genève, Schweiz, Suisse, Svizzera, Svizra	6.126852079378523	46.18776786814023	6.1414432964229775	46.19752381670099
Ächerli	place	hamlet	8.385264945832517	46.97670796646279	19	0.275	Stans, Nidwalden, Schweiz, Suisse, Svizzera, Svizra	8.385264945832517	46.97670796646279	8.385264945832517	46.97670796646279
Ächerlig	place	hamlet	8.074531450479157	47.13848942654769	19	0.275	Grosswangen, Luzern, Schweiz, Suisse, Svizzera, Svizra	8.074531450479157	47.13848942654769	8.074531450479157	47.13848942654769
Ackersand	place	hamlet	7.8752638562884565	46.24148186970418	19	0.275	Stalden (VS), Visp, Valais - Wallis, Schweiz, Suisse, Svizzera, Svizra	7.8752638562884565	46.24148186970418	7.8752638562884565	46.24148186970418
Acla da Fans	place	hamlet	10.43609176592932	46.95507745949519	19	0.275	Valsot, Inn, Graubünden - Grigioni - Grischun, Schweiz, Suisse, Svizzera, Svizra	10.43609176592932	46.95507745949519	10.43609176592932	46.95507745949519
Aclas	place	hamlet	9.609708281207133	46.653099616377816	19	0.275	Albula/Alvra, Albula, Graubünden - Grigioni - Grischun, Schweiz, Suisse, Svizzera, Svizra	9.609708281207133	46.653099616377816	9.609708281207133	46.653099616377816
Aclas Dafora	place	hamlet	9.638755347559794	46.694781982669404	19	0.275	Albula/Alvra, Albula, Graubünden - Grigioni - Grischun, Schweiz, Suisse, Svizzera, Svizra	9.638755347559794	46.694781982669404	9.638755347559794	46.694781982669404
Aclas Davains	place	hamlet	9.651750566420986	46.6966162783599	19	0.275	Albula/Alvra, Albula, Graubünden - Grigioni - Grischun, Schweiz, Suisse, Svizzera, Svizra	9.651750566420986	46.6966162783599	9.651750566420986	46.6966162783599
Aclas Seura	place	hamlet	9.651631627214956	46.69978505685463	19	0.275	Albula/Alvra, Albula, Graubünden - Grigioni - Grischun, Schweiz, Suisse, Svizzera, Svizra	9.651631627214956	46.69978505685463	9.651631627214956	46.69978505685463
Aclens	boundary	administrative	6.5089877379089565	46.56878781255513	16	0.35	Aclens, District de Morges, Vaud, Schweiz, Suisse, Svizzera, Svizra	6.492983249186267	46.55938675377474	6.528984277687812	46.57826087188377
Aclens	place	village	6.5107599247128	46.56802933413695	19	0.275	Aclens, District de Morges, Vaud, Schweiz, Suisse, Svizzera, Svizra	6.5107599247128	46.56802933413695	6.5107599247128	46.56802933413695
Acletta	place	hamlet	8.837204424455594	46.70102013028726	19	0.275	Disentis/Mustér, Surselva, Graubünden - Grigioni - Grischun, Schweiz, Suisse, Svizzera, Svizra	8.837204424455594	46.70102013028726	8.837204424455594	46.70102013028726
Acquarossa	boundary	administrative	8.933516937273666	46.460815698182756	16	0.35	Acquarossa, Circolo d'Acquarossa, Distretto di Blenio, Ticino, Schweiz, Suisse, Svizzera, Svizra	8.861791480129625	46.41615184702286	9.001005923205298	46.50565414438577
Acquarossa	place	village	8.942283231581	46.45502677866547	19	0.275	Acquarossa, Circolo d'Acquarossa, Distretto di Blenio, Ticino, Schweiz, Suisse, Svizzera, Svizra	8.942283231581	46.45502677866547	8.942283231581	46.45502677866547
Addi	place	hamlet	8.890128934559613	46.463867674856765	19	0.275	Acquarossa, Circolo d'Acquarossa, Distretto di Blenio, Ticino, Schweiz, Suisse, Svizzera, Svizra	8.890128934559613	46.463867674856765	8.890128934559613	46.463867674856765
Adelboden	boundary	administrative	7.551320702981645	46.46960932044014	16	0.35	Adelboden, Verwaltungskreis Frutigen-Niedersimmental, Verwaltungsregion Oberland, Bern - Berne, Schweiz, Suisse, Svizzera, Svizra	7.488657373408444	46.412422486843866	7.627838959423685	46.526854324444464
Adelboden	place	village	7.558761767533014	46.492721286884176	19	0.275	Adelboden, Verwaltungskreis Frutigen-Niedersimmental, Verwaltungsregion Oberland, Bern - Berne, Schweiz, Suisse, Svizzera, Svizra	7.558761767533014	46.492721286884176	7.558761767533014	46.492721286884176
Adelwil	place	hamlet	8.209996332989192	47.11440796727308	19	0.275	Neuenkirch, Luzern, Schweiz, Suisse, Svizzera, Svizra	8.209996332989192	47.11440796727308	8.209996332989192	47.11440796727308
Adetswil	place	village	8.843533180446741	47.33963272303058	19	0.275	Bäretswil, Bezirk Hinwil, Zürich, Schweiz, Suisse, Svizzera, Svizra	8.843533180446741	47.33963272303058	8.843533180446741	47.33963272303058
Adlemsried	place	hamlet	7.397318181965061	46.63914425050811	19	0.275	Boltigen, Verwaltungskreis Obersimmental-Saanen, Verwaltungsregion Oberland, Bern - Berne, Schweiz, Suisse, Svizzera, Svizra	7.397318181965061	46.63914425050811	7.397318181965061	46.63914425050811
Adlenberg	place	neighbourhood	7.6915144050718	47.402071238060245	22	0.19999999999999996	Adlenberg, Reigoldswil, Bezirk Waldenburg, Basel-Landschaft, Schweiz, Suisse, Svizzera, Svizra	7.690070986268665	47.40084458844031	7.692748920513566	47.40327232287546
Adletshusen	place	hamlet	8.775713274032114	47.26866616634556	19	0.275	Grüningen, Bezirk Hinwil, Zürich, Schweiz, Suisse, Svizzera, Svizra	8.775713274032114	47.26866616634556	8.775713274032114	47.26866616634556
Adligenswil	boundary	administrative	8.367396359725568	47.07178712119267	16	0.35	Adligenswil, Luzern, Schweiz, Suisse, Svizzera, Svizra	8.34043014575738	47.0569018250754	8.394605235814907	47.08654266544884
Adligenswil	place	village	8.36824398269613	47.070534990587134	19	0.275	Adligenswil, Luzern, Schweiz, Suisse, Svizzera, Svizra	8.36824398269613	47.070534990587134	8.36824398269613	47.070534990587134
Adlikon	boundary	administrative	8.690010988876265	47.58845320677373	16	0.35	Adlikon, Bezirk Andelfingen, Zürich, Schweiz, Suisse, Svizzera, Svizra	8.67570149501316	47.57188997936963	8.734359645983005	47.605030348137085
Adlikon	place	village	8.46590757154104	47.44605581978694	19	0.275	Regensdorf, Bezirk Dielsdorf, Zürich, Schweiz, Suisse, Svizzera, Svizra	8.46590757154104	47.44605581978694	8.46590757154104	47.44605581978694
Adlikon	place	village	8.691255541275154	47.582503145167934	19	0.275	Adlikon, Bezirk Andelfingen, Zürich, Schweiz, Suisse, Svizzera, Svizra	8.691255541275154	47.582503145167934	8.691255541275154	47.582503145167934
Adliswil	boundary	administrative	8.525265422877126	47.30826814426945	16	0.35	Adliswil, Bezirk Horgen, Zürich, Schweiz, Suisse, Svizzera, Svizra	8.503171752850818	47.286270090847644	8.540755619947618	47.33018162428824
Adliswil	place	town	8.524909967274226	47.31176239206445	18	0.3	Adliswil, Bezirk Horgen, Zürich, Schweiz, Suisse, Svizzera, Svizra	8.524909967274226	47.31176239206445	8.524909967274226	47.31176239206445
Aeberliswald	place	hamlet	8.904111373976548	47.38191942454092	19	0.275	Bauma, Bezirk Pfäffikon, Zürich, Schweiz, Suisse, Svizzera, Svizra	8.904111373976548	47.38191942454092	8.904111373976548	47.38191942454092
Aedermannsdorf	boundary	administrative	7.60421528209352	47.30684824987188	16	0.35	Aedermannsdorf, Bezirk Thal, Amtei Thal-Gäu, Solothurn, Schweiz, Suisse, Svizzera, Svizra	7.54806402833168	47.28019748581748	7.61933266880706	47.33353815741407
Aedermannsdorf	place	village	7.610111066573636	47.30545115425088	19	0.275	Aedermannsdorf, Bezirk Thal, Amtei Thal-Gäu, Solothurn, Schweiz, Suisse, Svizzera, Svizra	7.610111066573636	47.30545115425088	7.610111066573636	47.30545115425088
Aefligen	boundary	administrative	7.549616773599939	47.09804054112712	16	0.35	Aefligen, Verwaltungskreis Emmental, Verwaltungsregion Emmental-Oberaargau, Bern - Berne, Schweiz, Suisse, Svizzera, Svizra	7.534565140908826	47.086679374289616	7.5628767790770155	47.10995407538379
Aefligen	place	village	7.556337050582981	47.09458258697291	19	0.275	Aefligen, Verwaltungskreis Emmental, Verwaltungsregion Emmental-Oberaargau, Bern - Berne, Schweiz, Suisse, Svizzera, Svizra	7.556337050582981	47.09458258697291	7.556337050582981	47.09458258697291
Aegerten	boundary	administrative	7.283241032190075	47.117627162915426	16	0.35	Aegerten, Verwaltungskreis Biel/Bienne, Verwaltungsregion Seeland, Bern - Berne, Schweiz, Suisse, Svizzera, Svizra	7.271810329872892	47.10872126506501	7.29896509776509	47.12657379681524
Aegerten	place	hamlet	8.491797677882403	47.32049834682799	19	0.275	Stallikon, Bezirk Affoltern, Zürich, Schweiz, Suisse, Svizzera, Svizra	8.491797677882403	47.32049834682799	8.491797677882403	47.32049834682799
Aegerten	place	hamlet	8.763982465264661	47.24269802448563	19	0.275	Hombrechtikon, Bezirk Meilen, Zürich, Schweiz, Suisse, Svizzera, Svizra	8.763982465264661	47.24269802448563	8.763982465264661	47.24269802448563
Aegerten	place	village	7.288496519796553	47.120240766053485	19	0.275	Aegerten, Verwaltungskreis Biel/Bienne, Verwaltungsregion Seeland, Bern - Berne, Schweiz, Suisse, Svizzera, Svizra	7.288496519796553	47.120240766053485	7.288496519796553	47.120240766053485
Aegetswil	place	hamlet	8.862866123935502	47.42003436902285	19	0.275	Wila, Bezirk Pfäffikon, Zürich, Schweiz, Suisse, Svizzera, Svizra	8.862866123935502	47.42003436902285	8.862866123935502	47.42003436902285
Aekenmatt	place	village	7.363750922868974	46.85887424964018	19	0.275	Schwarzenburg, Verwaltungskreis Bern-Mittelland, Verwaltungsregion Bern-Mittelland, Bern - Berne, Schweiz, Suisse, Svizzera, Svizra	7.363750922868974	46.85887424964018	7.363750922868974	46.85887424964018
Aesch	boundary	administrative	7.584366473391913	47.474772513426004	16	0.35	Aesch, Basel-Landschaft, Schweiz, Suisse, Svizzera, Svizra	7.559319583189221	47.460693891670154	7.608850344517293	47.488325925129026
Aesch	place	town	7.598039449623142	47.46824464532497	18	0.3	Aesch, Basel-Landschaft, Schweiz, Suisse, Svizzera, Svizra	7.598039449623142	47.46824464532497	7.598039449623142	47.46824464532497
Aesch	place	village	8.240869983681419	47.256948936261225	19	0.275	Aesch (LU), Luzern, Schweiz, Suisse, Svizzera, Svizra	8.240869983681419	47.256948936261225	8.240869983681419	47.256948936261225
Aesch	place	village	8.439891066099788	47.337312696051136	19	0.275	Aesch (ZH), Bezirk Dietikon, Zürich, Schweiz, Suisse, Svizzera, Svizra	8.439891066099788	47.337312696051136	8.439891066099788	47.337312696051136
Aesch	place	village	8.655820794152019	47.328291169846494	19	0.275	Maur, Bezirk Uster, Zürich, Schweiz, Suisse, Svizzera, Svizra	8.655820794152019	47.328291169846494	8.655820794152019	47.328291169846494
Aesch	place	village	8.679539652295347	47.541352359175626	19	0.275	Neftenbach, Bezirk Winterthur, Zürich, Schweiz, Suisse, Svizzera, Svizra	8.679539652295347	47.541352359175626	8.679539652295347	47.541352359175626
Aeschau	place	village	7.762977953538325	46.908620844974976	19	0.275	Eggiwil, Verwaltungskreis Emmental, Verwaltungsregion Emmental-Oberaargau, Bern - Berne, Schweiz, Suisse, Svizzera, Svizra	7.762977953538325	46.908620844974976	7.762977953538325	46.908620844974976
Aeschbachquartier	place	neighbourhood	8.061153849195193	47.39106232070357	22	0.19999999999999996	Aarau, Bezirk Aarau, Aargau, Schweiz, Suisse, Svizzera, Svizra	8.061153849195193	47.39106232070357	8.061153849195193	47.39106232070357
Aeschi	place	village	7.66187392871683	47.18042014863029	19	0.275	Aeschi (SO), Bezirk Wasseramt, Amtei Bucheggberg-Wasseramt, Solothurn, Schweiz, Suisse, Svizzera, Svizra	7.66187392871683	47.18042014863029	7.66187392871683	47.18042014863029
Aeschi bei Spiez	boundary	administrative	7.758511350470058	46.62607933612203	16	0.35	Aeschi bei Spiez, Verwaltungskreis Frutigen-Niedersimmental, Verwaltungsregion Oberland, Bern - Berne, Schweiz, Suisse, Svizzera, Svizra	7.669362823926236	46.58429533925452	7.817803144005978	46.66795276789644
Aeschi bei Spiez	place	village	7.696508539363009	46.65835875770503	19	0.275	Aeschi bei Spiez, Verwaltungskreis Frutigen-Niedersimmental, Verwaltungsregion Oberland, Bern - Berne, Schweiz, Suisse, Svizzera, Svizra	7.696508539363009	46.65835875770503	7.696508539363009	46.65835875770503
Aeschiried	place	village	7.724530163681408	46.644994483647096	19	0.275	Aeschi bei Spiez, Verwaltungskreis Frutigen-Niedersimmental, Verwaltungsregion Oberland, Bern - Berne, Schweiz, Suisse, Svizzera, Svizra	7.724530163681408	46.644994483647096	7.724530163681408	46.644994483647096
Aeschi (SO)	boundary	administrative	7.662598122167137	47.17457745920416	16	0.35	Aeschi (SO), Bezirk Wasseramt, Amtei Bucheggberg-Wasseramt, Solothurn, Schweiz, Suisse, Svizzera, Svizra	7.645989132555599	47.15255669082477	7.700798481226258	47.18651303786614
Aeschlen	place	village	7.642675347135964	46.83652004915256	19	0.275	Oberdiessbach, Verwaltungskreis Bern-Mittelland, Verwaltungsregion Bern-Mittelland, Bern - Berne, Schweiz, Suisse, Svizzera, Svizra	7.642675347135964	46.83652004915256	7.642675347135964	46.83652004915256
Aesch (LU)	boundary	administrative	8.2359002578624	47.25914470152608	16	0.35	Aesch (LU), Luzern, Schweiz, Suisse, Svizzera, Svizra	8.222479333747458	47.24459174786961	8.264697974204068	47.274006193038396
Aesch (ZH)	boundary	administrative	8.435395537408487	47.33556888300541	16	0.35	Aesch (ZH), Bezirk Dietikon, Zürich, Schweiz, Suisse, Svizzera, Svizra	8.412412253830896	47.32446499868584	8.455225925593794	47.3466763715434
Aetigkofen	boundary	administrative	7.463270050395257	47.122507735585785	20	0.25	Aetigkofen, Buchegg, Bezirk Bucheggberg, Amtei Bucheggberg-Wasseramt, Solothurn, Schweiz, Suisse, Svizzera, Svizra	7.447888550743757	47.114888837058125	7.483379456618137	47.13020173596584
Aetigkofen	place	village	7.465913665880322	47.125248198828366	19	0.275	Aetigkofen, Buchegg, Bezirk Bucheggberg, Amtei Bucheggberg-Wasseramt, Solothurn, Schweiz, Suisse, Svizzera, Svizra	7.465913665880322	47.125248198828366	7.465913665880322	47.125248198828366
Aetingen	boundary	administrative	7.498387282741076	47.12703983063169	20	0.25	Aetingen, Buchegg, Bezirk Bucheggberg, Amtei Bucheggberg-Wasseramt, Solothurn, Schweiz, Suisse, Svizzera, Svizra	7.484864729860476	47.11705673249492	7.514935645685795	47.13742366755917
Aetingen	place	village	7.505342054589504	47.13196478547934	19	0.275	Aetingen, Buchegg, Bezirk Bucheggberg, Amtei Bucheggberg-Wasseramt, Solothurn, Schweiz, Suisse, Svizzera, Svizra	7.505342054589504	47.13196478547934	7.505342054589504	47.13196478547934
Aetschberg	place	hamlet	9.31259068464496	47.43343719983534	19	0.275	Gaiserwald, Wahlkreis St. Gallen, Sankt Gallen, Schweiz, Suisse, Svizzera, Svizra	9.31259068464496	47.43343719983534	9.31259068464496	47.43343719983534
Aettenschwil	place	hamlet	8.371606886068378	47.18448252182237	19	0.275	Sins, Bezirk Muri, Aargau, Schweiz, Suisse, Svizzera, Svizra	8.371606886068378	47.18448252182237	8.371606886068378	47.18448252182237
Aetzikofen	place	village	7.388678367630888	47.00664778932247	19	0.275	Meikirch, Verwaltungskreis Bern-Mittelland, Verwaltungsregion Bern-Mittelland, Bern - Berne, Schweiz, Suisse, Svizzera, Svizra	7.388678367630888	47.00664778932247	7.388678367630888	47.00664778932247
Aetzrütti	place	hamlet	7.599526231608053	46.96699937565498	19	0.275	Vechigen, Verwaltungskreis Bern-Mittelland, Verwaltungsregion Bern-Mittelland, Bern - Berne, Schweiz, Suisse, Svizzera, Svizra	7.599526231608053	46.96699937565498	7.599526231608053	46.96699937565498
Aeugst am Albis	boundary	administrative	8.490658607472263	47.27512769168298	16	0.35	Aeugst am Albis, Bezirk Affoltern, Zürich, Schweiz, Suisse, Svizzera, Svizra	8.471125641542672	47.25722034228597	8.511339498398229	47.29303294560419
Aeugst am Albis	place	village	8.486131427518075	47.2679161536496	19	0.275	Aeugst am Albis, Bezirk Affoltern, Zürich, Schweiz, Suisse, Svizzera, Svizra	8.486131427518075	47.2679161536496	8.486131427518075	47.2679161536496
Aeugstertal	place	hamlet	8.487291147641175	47.28422314627364	19	0.275	Aeugst am Albis, Bezirk Affoltern, Zürich, Schweiz, Suisse, Svizzera, Svizra	8.487291147641175	47.28422314627364	8.487291147641175	47.28422314627364
Aeuja	place	village	9.901675365907266	46.861264349330135	19	0.275	Klosters-Serneus, Prättigau/Davos, Graubünden - Grigioni - Grischun, Schweiz, Suisse, Svizzera, Svizra	9.901675365907266	46.861264349330135	9.901675365907266	46.861264349330135
Affeltrangen	boundary	administrative	9.047656542500459	47.531467832220216	16	0.35	Affeltrangen, Bezirk Weinfelden, Thurgau, Schweiz, Suisse, Svizzera, Svizra	9.007166873494924	47.51313342485652	9.086273683084956	47.55006274913451
Affeltrangen	place	hamlet	8.81662718744073	47.28679722873826	19	0.275	Hinwil, Bezirk Hinwil, Zürich, Schweiz, Suisse, Svizzera, Svizra	8.81662718744073	47.28679722873826	8.81662718744073	47.28679722873826
Affeltrangen	place	village	9.031894577504204	47.52655612077956	19	0.275	Affeltrangen, Bezirk Weinfelden, Thurgau, Schweiz, Suisse, Svizzera, Svizra	9.031894577504204	47.52655612077956	9.031894577504204	47.52655612077956
Affoltern	place	suburb	8.506729908111115	47.42064201509339	20	0.25	Kreis 11, Affoltern, Zürich, Bezirk Zürich, Zürich, Schweiz, Suisse, Svizzera, Svizra	8.484369551471021	47.40656859011748	8.53267253162224	47.43466615447862
Affoltern	place	suburb	8.506866579588717	47.418826452956495	20	0.25	Kreis 11, Affoltern, Zürich, Bezirk Zürich, Zürich, Schweiz, Suisse, Svizzera, Svizra	8.506866579588717	47.418826452956495	8.506866579588717	47.418826452956495
Affoltern am Albis	boundary	administrative	8.450390762116506	47.28195056086623	16	0.35	Affoltern am Albis, Bezirk Affoltern, Zürich, Schweiz, Suisse, Svizzera, Svizra	8.414669248898434	47.26330283796191	8.47746277943699	47.30067849858392
Affoltern am Albis	place	town	8.45215177878589	47.27824668167288	18	0.3	Affoltern am Albis, Bezirk Affoltern, Zürich, Schweiz, Suisse, Svizzera, Svizra	8.45215177878589	47.27824668167288	8.45215177878589	47.27824668167288
Affoltern im Emmental	boundary	administrative	7.734722653173222	47.069208805867014	16	0.35	Affoltern im Emmental, Verwaltungskreis Emmental, Verwaltungsregion Emmental-Oberaargau, Bern - Berne, Schweiz, Suisse, Svizzera, Svizra	7.694506689428067	47.05104002491004	7.769866620661475	47.087379682299776
Affoltern im Emmental	place	village	7.7341484813920545	47.065353298045274	19	0.275	Affoltern im Emmental, Verwaltungskreis Emmental, Verwaltungsregion Emmental-Oberaargau, Bern - Berne, Schweiz, Suisse, Svizzera, Svizra	7.7341484813920545	47.065353298045274	7.7341484813920545	47.065353298045274
Agarn	boundary	administrative	7.666599372446969	46.27207434945443	16	0.35	Agarn, Leuk, Valais - Wallis, Schweiz, Suisse, Svizzera, Svizra	7.642822533355684	46.23902354132242	7.685607539009738	46.30483832885987
Agarn	place	village	7.665277651957523	46.29670754750543	19	0.275	Agarn, Leuk, Valais - Wallis, Schweiz, Suisse, Svizzera, Svizra	7.665277651957523	46.29670754750543	7.665277651957523	46.29670754750543
Agarone	place	village	8.906058741540875	46.17883108297662	19	0.275	Cugnasco-Gerra, Circolo della Navegna, Distretto di Locarno, Ticino, Schweiz, Suisse, Svizzera, Svizra	8.906058741540875	46.17883108297662	8.906058741540875	46.17883108297662
Agasul	place	hamlet	8.74298236123471	47.42511279651758	19	0.275	Illnau-Effretikon, Bezirk Pfäffikon, Zürich, Schweiz, Suisse, Svizzera, Svizra	8.74298236123471	47.42511279651758	8.74298236123471	47.42511279651758
Agen	place	hamlet	9.335875779299045	47.490579232159156	19	0.275	Häggenschwil, Wahlkreis St. Gallen, Sankt Gallen, Schweiz, Suisse, Svizzera, Svizra	9.335875779299045	47.490579232159156	9.335875779299045	47.490579232159156
Ägerte	place	hamlet	7.967569229710648	46.325044918116376	19	0.275	Naters, Brig, Valais - Wallis, Schweiz, Suisse, Svizzera, Svizra	7.967569229710648	46.325044918116376	7.967569229710648	46.325044918116376
Ägerten	place	neighbourhood	7.838233530077219	47.41530035392947	22	0.19999999999999996	Känerkinden, Bezirk Sissach, Basel-Landschaft, Schweiz, Suisse, Svizzera, Svizra	7.838233530077219	47.41530035392947	7.838233530077219	47.41530035392947
Ägertli	place	neighbourhood	8.558374464237374	47.29579704581371	22	0.19999999999999996	Thalwil, Bezirk Horgen, Zürich, Schweiz, Suisse, Svizzera, Svizra	8.558374464237374	47.29579704581371	8.558374464237374	47.29579704581371
Ägeten	place	hamlet	8.005433220011525	47.09877035343646	19	0.275	Willisau, Luzern, Schweiz, Suisse, Svizzera, Svizra	8.005433220011525	47.09877035343646	8.005433220011525	47.09877035343646
Agiez	boundary	administrative	6.508673270799598	46.71617884408607	16	0.35	Agiez, District du Jura-Nord vaudois, Vaud, Schweiz, Suisse, Svizzera, Svizra	6.485240885224898	46.70351793743295	6.525758250794381	46.728630119340785
Agiez	place	village	6.508967957633331	46.71807998545437	19	0.275	Agiez, District du Jura-Nord vaudois, Vaud, Schweiz, Suisse, Svizzera, Svizra	6.508967957633331	46.71807998545437	6.508967957633331	46.71807998545437
Agno	boundary	administrative	8.900961533901498	46.00133799685011	16	0.35	Agno, Circolo d'Agno, Distretto di Lugano, Ticino, Schweiz, Suisse, Svizzera, Svizra	8.88615079949443	45.987815556279315	8.912044426235127	46.01491181848737
Agno	place	village	8.900220662161475	45.99685912688932	19	0.275	Agno, Circolo d'Agno, Distretto di Lugano, Ticino, Schweiz, Suisse, Svizzera, Svizra	8.900220662161475	45.99685912688932	8.900220662161475	45.99685912688932
Agra	place	village	8.914854794550195	45.967994283111665	19	0.275	Collina d'Oro, Circolo di Carona, Distretto di Lugano, Ticino, Schweiz, Suisse, Svizzera, Svizra	8.914854794550195	45.967994283111665	8.914854794550195	45.967994283111665
Agriswil	place	village	7.197270819322115	46.95383584817805	19	0.275	Ried bei Kerzers, Seebezirk / District du Lac, Fribourg - Freiburg, Schweiz, Suisse, Svizzera, Svizra	7.197270819322115	46.95383584817805	7.197270819322115	46.95383584817805
Agro (1173)	place	hamlet	8.851622639018531	46.292790935609545	19	0.275	Lavertezzo, Circolo della Verzasca, Distretto di Locarno, Ticino, Schweiz, Suisse, Svizzera, Svizra	8.851622639018531	46.292790935609545	8.851622639018531	46.292790935609545
Agy	place	suburb	7.152242145826592	46.82356749417851	20	0.25	Granges-Paccot, District de la Sarine, Fribourg - Freiburg, Schweiz, Suisse, Svizzera, Svizra	7.152242145826592	46.82356749417851	7.152242145826592	46.82356749417851
Aiarlo	place	hamlet	8.735466392478031	46.248917539828405	19	0.275	Maggia, Circolo della Maggia, Distretto di Vallemaggia, Ticino, Schweiz, Suisse, Svizzera, Svizra	8.735466392478031	46.248917539828405	8.735466392478031	46.248917539828405
Aiarlo di Dentro	place	hamlet	8.741228364176607	46.24886674549521	19	0.275	Maggia, Circolo della Maggia, Distretto di Vallemaggia, Ticino, Schweiz, Suisse, Svizzera, Svizra	8.741228364176607	46.24886674549521	8.741228364176607	46.24886674549521
Ai Chiossi	place	neighbourhood	9.031365847052001	46.21900495815407	22	0.19999999999999996	Gorduno, Circolo del Ticino, Distretto di Bellinzona, Ticino, Schweiz, Suisse, Svizzera, Svizra	9.031365847052001	46.21900495815407	9.031365847052001	46.21900495815407
Aigle	boundary	administrative	6.969758258640522	46.316641976365915	16	0.35	Aigle, District d'Aigle, Vaud, Schweiz, Suisse, Svizzera, Svizra	6.931766660226259	46.29130524327206	7.040284646042807	46.341669920146884
Aigle	place	town	6.968892875409807	46.31790051912741	18	0.3	Aigle, District d'Aigle, Vaud, Schweiz, Suisse, Svizzera, Svizra	6.968892875409807	46.31790051912741	6.968892875409807	46.31790051912741
Aïre	place	neighbourhood	6.101957659315132	46.199070529293586	22	0.19999999999999996	Vernier, Genève, Schweiz, Suisse, Svizzera, Svizra	6.101957659315132	46.199070529293586	6.101957659315132	46.199070529293586
Aire-la-Ville	boundary	administrative	6.045244391946957	46.1906735806039	16	0.35	Aire-la-Ville, Genève, Schweiz, Suisse, Svizzera, Svizra	6.028175034620915	46.18185695002228	6.060382916660302	46.19946615512338
Aire-la-Ville	place	village	6.042877563339517	46.19059189895746	19	0.275	Aire-la-Ville, Genève, Schweiz, Suisse, Svizzera, Svizra	6.042877563339517	46.19059189895746	6.042877563339517	46.19059189895746
Airolo	boundary	administrative	8.593527710024649	46.53890565718929	16	0.35	Airolo, Circolo di Airolo, Distretto di Leventina, Ticino, Schweiz, Suisse, Svizzera, Svizra	8.513060135481709	46.49108078079505	8.705309897421332	46.58678627323958
Airolo	place	village	8.608604443928213	46.52903085324154	19	0.275	Airolo, Circolo di Airolo, Distretto di Leventina, Ticino, Schweiz, Suisse, Svizzera, Svizra	8.608604443928213	46.52903085324154	8.608604443928213	46.52903085324154
Alber	place	hamlet	9.098912922518338	47.50450039986392	19	0.275	Wuppenau, Bezirk Weinfelden, Thurgau, Schweiz, Suisse, Svizzera, Svizra	9.098912922518338	47.50450039986392	9.098912922518338	47.50450039986392
Alberswil	boundary	administrative	7.993899256836972	47.1457636193073	16	0.35	Alberswil, Luzern, Schweiz, Suisse, Svizzera, Svizra	7.97947899211087	47.1311996853577	8.00730221678117	47.159962940468866
Alberswil	place	village	8.001340671968023	47.15061829189687	19	0.275	Alberswil, Luzern, Schweiz, Suisse, Svizzera, Svizra	8.001340671968023	47.15061829189687	8.001340671968023	47.15061829189687
Alberwil	place	hamlet	7.165967596092259	46.84947537015462	19	0.275	Düdingen, Sensebezirk, Fribourg - Freiburg, Schweiz, Suisse, Svizzera, Svizra	7.165967596092259	46.84947537015462	7.165967596092259	46.84947537015462
Albeuve	place	village	7.0565394194101145	46.51774218986647	19	0.275	Haut-Intyamon, District de la Gruyère, Fribourg - Freiburg, Schweiz, Suisse, Svizzera, Svizra	7.0565394194101145	46.51774218986647	7.0565394194101145	46.51774218986647
Albinasca	place	hamlet	8.577535159615906	46.52440856891747	19	0.275	Airolo, Circolo di Airolo, Distretto di Leventina, Ticino, Schweiz, Suisse, Svizzera, Svizra	8.577535159615906	46.52440856891747	8.577535159615906	46.52440856891747
Albinen	boundary	administrative	7.643596892073811	46.3524406238153	16	0.35	Albinen, Leuk, Valais - Wallis, Schweiz, Suisse, Svizzera, Svizra	7.6153331598887934	46.327448177394295	7.67086796227912	46.377315555953864
Albinen	place	village	7.63374074126719	46.34056468239439	19	0.275	Albinen, Leuk, Valais - Wallis, Schweiz, Suisse, Svizzera, Svizra	7.63374074126719	46.34056468239439	7.63374074126719	46.34056468239439
Albisrieden	place	suburb	8.483470489692987	47.37040574897519	20	0.25	Albisrieden, Kreis 9, Zürich, Bezirk Zürich, Zürich, Schweiz, Suisse, Svizzera, Svizra	8.464176457078594	47.35802337296453	8.50267889694419	47.38278359875811
Albisrieden	place	suburb	8.484557725197249	47.37482984319872	20	0.25	Kreis 9, Albisrieden, Zürich, Bezirk Zürich, Zürich, Schweiz, Suisse, Svizzera, Svizra	8.484557725197249	47.37482984319872	8.484557725197249	47.37482984319872
Albligen	place	village	7.318043985768639	46.851397927285554	19	0.275	Schwarzenburg, Verwaltungskreis Bern-Mittelland, Verwaltungsregion Bern-Mittelland, Bern - Berne, Schweiz, Suisse, Svizzera, Svizra	7.318043985768639	46.851397927285554	7.318043985768639	46.851397927285554
Albonago	place	suburb	8.974257677617004	46.0135995477265	20	0.25	Circolo di Lugano est, Lugano, Distretto di Lugano, Ticino, Schweiz, Suisse, Svizzera, Svizra	8.974257677617004	46.0135995477265	8.974257677617004	46.0135995477265
Alborello	place	hamlet	8.907161464722378	46.06629347167421	19	0.275	Torricella-Taverne, Circolo di Taverne, Distretto di Lugano, Ticino, Schweiz, Suisse, Svizzera, Svizra	8.907161464722378	46.06629347167421	8.907161464722378	46.06629347167421
Albula	boundary	administrative	9.661157604135099	46.58774520487218	12	0.45	Albula, Graubünden - Grigioni - Grischun, Schweiz, Suisse, Svizzera, Svizra	9.464133230908232	46.40454928137396	9.887922339180164	46.77095982001447
Albula/Alvra	boundary	administrative	9.62906676398876	46.69021946131497	16	0.35	Albula/Alvra, Albula, Graubünden - Grigioni - Grischun, Schweiz, Suisse, Svizzera, Svizra	9.488824054543555	46.61632493821336	9.691763592876498	46.76434909680052
Albumo	place	hamlet	9.01318164339321	46.08549842350147	19	0.275	Capriasca, Circolo di Capriasca, Distretto di Lugano, Ticino, Schweiz, Suisse, Svizzera, Svizra	9.01318164339321	46.08549842350147	9.01318164339321	46.08549842350147
Alchenflüh	place	village	7.577118219302036	47.08374637873114	19	0.275	Rüdtligen-Alchenflüh, Verwaltungskreis Emmental, Verwaltungsregion Emmental-Oberaargau, Bern - Berne, Schweiz, Suisse, Svizzera, Svizra	7.577118219302036	47.08374637873114	7.577118219302036	47.08374637873114
Alchenstorf	boundary	administrative	7.6434326708959235	47.122984246781186	16	0.35	Alchenstorf, Verwaltungskreis Emmental, Verwaltungsregion Emmental-Oberaargau, Bern - Berne, Schweiz, Suisse, Svizzera, Svizra	7.618975767369932	47.108715146275685	7.670748017244705	47.137005745866944
Alchenstorf	place	village	7.63610933598847	47.12154712757259	19	0.275	Alchenstorf, Alchenstorf, Verwaltungskreis Emmental, Verwaltungsregion Emmental-Oberaargau, Bern - Berne, Schweiz, Suisse, Svizzera, Svizra	7.634128823384116	47.11974061789112	7.637466161951694	47.12342102775556
Alchenstorf	place	village	7.636659990504455	47.1225439454075	19	0.275	Alchenstorf, Alchenstorf, Verwaltungskreis Emmental, Verwaltungsregion Emmental-Oberaargau, Bern - Berne, Schweiz, Suisse, Svizzera, Svizra	7.636659990504455	47.1225439454075	7.636659990504455	47.1225439454075
Aldesago	place	neighbourhood	8.979240132320427	46.00833671836194	22	0.19999999999999996	Circolo di Lugano est, Lugano, Distretto di Lugano, Ticino, Schweiz, Suisse, Svizzera, Svizra	8.979240132320427	46.00833671836194	8.979240132320427	46.00833671836194
Alfermée	place	village	7.201995698141019	47.11888524467227	19	0.275	Twann-Tüscherz, Verwaltungskreis Biel/Bienne, Verwaltungsregion Seeland, Bern - Berne, Schweiz, Suisse, Svizzera, Svizra	7.201995698141019	47.11888524467227	7.201995698141019	47.11888524467227
Algetshausen	place	village	9.107433462370352	47.44721822211907	19	0.275	Uzwil, Wahlkreis Wil, Sankt Gallen, Schweiz, Suisse, Svizzera, Svizra	9.107433462370352	47.44721822211907	9.107433462370352	47.44721822211907
Älggi	place	hamlet	8.236549028776437	46.79752995016031	19	0.275	Sachseln, Obwalden, Schweiz, Suisse, Svizzera, Svizra	8.236549028776437	46.79752995016031	8.236549028776437	46.79752995016031
Al Guasto	place	hamlet	8.920539066006341	45.97772508596288	19	0.275	Collina d'Oro, Circolo di Carona, Distretto di Lugano, Ticino, Schweiz, Suisse, Svizzera, Svizra	8.920539066006341	45.97772508596288	8.920539066006341	45.97772508596288
All'Acqua	place	hamlet	8.4757372808497	46.48691296326107	19	0.275	Bedretto, Circolo di Airolo, Distretto di Leventina, Ticino, Schweiz, Suisse, Svizzera, Svizra	8.4757372808497	46.48691296326107	8.4757372808497	46.48691296326107
Allaman	boundary	administrative	6.393301169627286	46.47021981635777	16	0.35	Allaman, District de Morges, Vaud, Schweiz, Suisse, Svizzera, Svizra	6.377812127725775	46.460008730454696	6.408374977448317	46.480360829550314
Allaman	place	village	6.396697142308909	46.47055995398857	19	0.275	Allaman, District de Morges, Vaud, Schweiz, Suisse, Svizzera, Svizra	6.396697142308909	46.47055995398857	6.396697142308909	46.47055995398857
Alle	boundary	administrative	7.126640444204345	47.427131871263555	16	0.35	Alle, District de Porrentruy, Jura, Schweiz, Suisse, Svizzera, Svizra	7.0998443545180105	47.41026132137961	7.15292024179334	47.445017721078905
Alle	place	village	7.1291257788833775	47.42580958412843	19	0.275	Alle, District de Porrentruy, Jura, Schweiz, Suisse, Svizzera, Svizra	7.1291257788833775	47.42580958412843	7.1291257788833775	47.42580958412843
Allenberg	place	hamlet	8.708075087278274	47.25421769311217	19	0.275	Männedorf, Bezirk Meilen, Zürich, Schweiz, Suisse, Svizzera, Svizra	8.708075087278274	47.25421769311217	8.708075087278274	47.25421769311217
Allenberg	place	hamlet	8.879426669130565	47.33580537840347	19	0.275	Bäretswil, Bezirk Hinwil, Zürich, Schweiz, Suisse, Svizzera, Svizra	8.879426669130565	47.33580537840347	8.879426669130565	47.33580537840347
Ällenboden	place	hamlet	8.98819234018589	47.08182641999023	19	0.275	Glarus Nord, Glarus, Schweiz, Suisse, Svizzera, Svizra	8.98819234018589	47.08182641999023	8.98819234018589	47.08182641999023
Allenlüften	place	hamlet	7.1832231686984755	46.86499253604267	19	0.275	Düdingen, Sensebezirk, Fribourg - Freiburg, Schweiz, Suisse, Svizzera, Svizra	7.1832231686984755	46.86499253604267	7.1832231686984755	46.86499253604267
Allenlüften	place	hamlet	7.2715592918728476	46.94640763794766	19	0.275	Mühleberg, Verwaltungskreis Bern-Mittelland, Verwaltungsregion Bern-Mittelland, Bern - Berne, Schweiz, Suisse, Svizzera, Svizra	7.2715592918728476	46.94640763794766	7.2715592918728476	46.94640763794766
Allens	place	hamlet	6.51016006663118	46.60089741677979	19	0.275	Allens, Cossonay, District de Morges, Vaud, Schweiz, Suisse, Svizzera, Svizra	6.50699552817855	46.59854616721106	6.511282871651788	46.60298497167469
Allenwil	place	hamlet	7.332211329969623	47.040189651251914	19	0.275	Schüpfen, Verwaltungskreis Seeland, Verwaltungsregion Seeland, Bern - Berne, Schweiz, Suisse, Svizzera, Svizra	7.332211329969623	47.040189651251914	7.332211329969623	47.040189651251914
Allenwil	place	hamlet	8.90541065278748	47.35717856094367	19	0.275	Bauma, Bezirk Pfäffikon, Zürich, Schweiz, Suisse, Svizzera, Svizra	8.90541065278748	47.35717856094367	8.90541065278748	47.35717856094367
Allenwinden	place	hamlet	8.534315971377481	47.2247984702586	19	0.275	Kappel am Albis, Bezirk Affoltern, Zürich, Schweiz, Suisse, Svizzera, Svizra	8.534315971377481	47.2247984702586	8.534315971377481	47.2247984702586
Allenwinden	place	hamlet	8.781804486887353	47.304148857954814	19	0.275	Gossau (ZH), Bezirk Hinwil, Zürich, Schweiz, Suisse, Svizzera, Svizra	8.781804486887353	47.304148857954814	8.781804486887353	47.304148857954814
Allenwinden	place	village	8.555912280180166	47.164246679723774	19	0.275	Baar, Zug, Schweiz, Suisse, Svizzera, Svizra	8.555912280180166	47.164246679723774	8.555912280180166	47.164246679723774
Allerheiligen	place	hamlet	7.364908296059183	47.19538804840338	19	0.275	Grenchen, Bezirk Lebern, Amtei Solothurn-Lebern, Solothurn, Schweiz, Suisse, Svizzera, Svizra	7.364908296059183	47.19538804840338	7.364908296059183	47.19538804840338
Allerheiligenberg	place	hamlet	7.813205837753372	47.35208906933672	19	0.275	Hägendorf, Bezirk Olten, Amtei Olten-Gösgen, Solothurn, Schweiz, Suisse, Svizzera, Svizra	7.813205837753372	47.35208906933672	7.813205837753372	47.35208906933672
Allesses	place	hamlet	7.054021747153882	46.14883845412699	19	0.275	Dorénaz, Saint-Maurice, Valais - Wallis, Schweiz, Suisse, Svizzera, Svizra	7.054021747153882	46.14883845412699	7.054021747153882	46.14883845412699
Ällgäuli 1712m	place	hamlet	7.899315895082908	46.776518362923	19	0.275	Habkern, Verwaltungskreis Interlaken-Oberhasli, Verwaltungsregion Oberland, Bern - Berne, Schweiz, Suisse, Svizzera, Svizra	7.899315895082908	46.776518362923	7.899315895082908	46.776518362923
Allières	place	hamlet	7.008159577206755	46.468920789003946	19	0.275	Haut-Intyamon, District de la Gruyère, Fribourg - Freiburg, Schweiz, Suisse, Svizzera, Svizra	7.008159577206755	46.468920789003946	7.008159577206755	46.468920789003946
Allmend	place	hamlet	7.460340789917353	47.00204838759407	19	0.275	Münchenbuchsee, Verwaltungskreis Bern-Mittelland, Verwaltungsregion Bern-Mittelland, Bern - Berne, Schweiz, Suisse, Svizzera, Svizra	7.460340789917353	47.00204838759407	7.460340789917353	47.00204838759407
Allmend	place	hamlet	8.081782299638434	47.11850445481108	19	0.275	Buttisholz, Luzern, Schweiz, Suisse, Svizzera, Svizra	8.081782299638434	47.11850445481108	8.081782299638434	47.11850445481108
Allmend	place	hamlet	9.30964578678396	47.43874202253482	19	0.275	Waldkirch, Wahlkreis St. Gallen, Sankt Gallen, Schweiz, Suisse, Svizzera, Svizra	9.30964578678396	47.43874202253482	9.30964578678396	47.43874202253482
Allmendingen	boundary	administrative	7.519985697237576	46.91745402981539	16	0.35	Allmendingen, Verwaltungskreis Bern-Mittelland, Verwaltungsregion Bern-Mittelland, Bern - Berne, Schweiz, Suisse, Svizzera, Svizra	7.503583196027591	46.90742483121114	7.54078903929127	46.92796418202369
Allmendingen	place	neighbourhood	7.596146145334303	46.74354747623775	22	0.19999999999999996	Thun, Verwaltungskreis Thun, Verwaltungsregion Oberland, Bern - Berne, Schweiz, Suisse, Svizzera, Svizra	7.596146145334303	46.74354747623775	7.596146145334303	46.74354747623775
Allmendingen bei Bern	place	village	7.5212019564983175	46.91362391916022	19	0.275	Allmendingen, Verwaltungskreis Bern-Mittelland, Verwaltungsregion Bern-Mittelland, Bern - Berne, Schweiz, Suisse, Svizzera, Svizra	7.5212019564983175	46.91362391916022	7.5212019564983175	46.91362391916022
Allmiried	place	hamlet	7.5359413655908725	46.60856798974048	19	0.275	Diemtigen, Verwaltungskreis Frutigen-Niedersimmental, Verwaltungsregion Oberland, Bern - Berne, Schweiz, Suisse, Svizzera, Svizra	7.5359413655908725	46.60856798974048	7.5359413655908725	46.60856798974048
Allmit	place	hamlet	7.635411673664834	46.86431578118043	19	0.275	Freimettigen, Verwaltungskreis Bern-Mittelland, Verwaltungsregion Bern-Mittelland, Bern - Berne, Schweiz, Suisse, Svizzera, Svizra	7.635411673664834	46.86431578118043	7.635411673664834	46.86431578118043
Allschwil	boundary	administrative	7.536823182675043	47.545645360433525	16	0.35	Allschwil, Basel-Landschaft, Schweiz, Suisse, Svizzera, Svizra	7.504095162673423	47.526833561774616	7.564578389240267	47.56436805946175
Allschwil	place	town	7.536158792159199	47.55172764656188	18	0.3	Allschwil, Basel-Landschaft, Schweiz, Suisse, Svizzera, Svizra	7.536158792159199	47.55172764656188	7.536158792159199	47.55172764656188
Almens	place	village	9.45523248792827	46.73766765498056	19	0.275	Domleschg, Hinterrhein, Graubünden - Grigioni - Grischun, Schweiz, Suisse, Svizzera, Svizra	9.45523248792827	46.73766765498056	9.45523248792827	46.73766765498056
Almensberg	place	hamlet	9.32988749621478	47.534199745921576	19	0.275	Amriswil, Bezirk Arbon, Thurgau, Schweiz, Suisse, Svizzera, Svizra	9.32988749621478	47.534199745921576	9.32988749621478	47.534199745921576
Älmeringen	place	hamlet	8.226192768310398	47.16336054492025	19	0.275	Beromünster, Luzern, Schweiz, Suisse, Svizzera, Svizra	8.226192768310398	47.16336054492025	8.226192768310398	47.16336054492025
Alosen	place	village	8.634153239172349	47.14007419298069	19	0.275	Oberägeri, Zug, Schweiz, Suisse, Svizzera, Svizra	8.634153239172349	47.14007419298069	8.634153239172349	47.14007419298069
Alp	place	hamlet	8.938414899447395	47.511144063957325	19	0.275	Wängi, Bezirk Münchwilen, Thurgau, Schweiz, Suisse, Svizzera, Svizra	8.938414899447395	47.511144063957325	8.938414899447395	47.511144063957325
Alp Aesch	place	hamlet	8.815971890250637	46.86487694959791	19	0.275	Unterschächen, Uri, Schweiz, Suisse, Svizzera, Svizra	8.815971890250637	46.86487694959791	8.815971890250637	46.86487694959791
Alp Astras	place	hamlet	10.35130839623406	46.66461794389985	19	0.275	Scuol, Inn, Graubünden - Grigioni - Grischun, Schweiz, Suisse, Svizzera, Svizra	10.35130839623406	46.66461794389985	10.35130839623406	46.66461794389985
Alp Berg	place	hamlet	9.260714331532796	46.77066812978404	19	0.275	Ilanz/Glion, Surselva, Graubünden - Grigioni - Grischun, Schweiz, Suisse, Svizzera, Svizra	9.260714331532796	46.77066812978404	9.260714331532796	46.77066812978404
Alpboden	place	hamlet	8.44034285068085	46.91801494677572	19	0.275	Wolfenschiessen, Nidwalden, Schweiz, Suisse, Svizzera, Svizra	8.44034285068085	46.91801494677572	8.44034285068085	46.91801494677572
Alp Böheli	place	hamlet	9.28799357068712	47.27202077163366	19	0.275	Urnäsch, Hinterland, Appenzell Ausserrhoden, Schweiz, Suisse, Svizzera, Svizra	9.28799357068712	47.27202077163366	9.28799357068712	47.27202077163366
Alp Champatsch	place	hamlet	10.357445877194806	46.64142211651455	19	0.275	Val Müstair, Inn, Graubünden - Grigioni - Grischun, Schweiz, Suisse, Svizzera, Svizra	10.357445877194806	46.64142211651455	10.357445877194806	46.64142211651455
Alp da Munt	place	hamlet	10.330207290270863	46.639013744275715	19	0.275	Val Müstair, Inn, Graubünden - Grigioni - Grischun, Schweiz, Suisse, Svizzera, Svizra	10.330207290270863	46.639013744275715	10.330207290270863	46.639013744275715
Alp da Sevgein	place	hamlet	9.25715353142661	46.76036635168863	19	0.275	Ilanz/Glion, Surselva, Graubünden - Grigioni - Grischun, Schweiz, Suisse, Svizzera, Svizra	9.25715353142661	46.76036635168863	9.25715353142661	46.76036635168863
Alp da Stierva	place	hamlet	9.514775181140037	46.651827997847384	19	0.275	Albula/Alvra, Albula, Graubünden - Grigioni - Grischun, Schweiz, Suisse, Svizzera, Svizra	9.514775181140037	46.651827997847384	9.514775181140037	46.651827997847384
Alp d'il Plaun	place	hamlet	9.478824024962393	46.792857458236256	19	0.275	Domleschg, Hinterrhein, Graubünden - Grigioni - Grischun, Schweiz, Suisse, Svizzera, Svizra	9.478824024962393	46.792857458236256	9.478824024962393	46.792857458236256
Alpe Arena	place	hamlet	8.514482628269263	46.23217259276351	19	0.275	Onsernone, Circolo d'Onsernone, Distretto di Locarno, Ticino, Schweiz, Suisse, Svizzera, Svizra	8.514482628269263	46.23217259276351	8.514482628269263	46.23217259276351
Alpe Canaa	place	hamlet	8.63468775313774	46.24959714453773	19	0.275	Maggia, Circolo della Maggia, Distretto di Vallemaggia, Ticino, Schweiz, Suisse, Svizzera, Svizra	8.63468775313774	46.24959714453773	8.63468775313774	46.24959714453773
Alpe Caneggio	place	hamlet	9.059395517997473	46.143294495729975	19	0.275	Comunanza Cadenazzo/Monteceneri, Circolo di Giubiasco, Distretto di Bellinzona, Ticino, Schweiz, Suisse, Svizzera, Svizra	9.059395517997473	46.143294495729975	9.059395517997473	46.143294495729975
Alpe Corwetsch	place	hamlet	8.129629136618973	46.213381874591086	19	0.275	Zwischbergen, Brig, Valais - Wallis, Schweiz, Suisse, Svizzera, Svizra	8.129629136618973	46.213381874591086	8.129629136618973	46.213381874591086
Alpe Cottino	place	hamlet	9.08422774433933	46.08792414627993	19	0.275	Lugano, Circolo di Sonvico, Distretto di Lugano, Ticino, Schweiz, Suisse, Svizzera, Svizra	9.08422774433933	46.08792414627993	9.08422774433933	46.08792414627993
Alpe d'Arnau	place	hamlet	8.514750681532774	46.27224839967385	19	0.275	Campo (Vallemaggia), Circolo della Rovana, Distretto di Vallemaggia, Ticino, Schweiz, Suisse, Svizzera, Svizra	8.514750681532774	46.27224839967385	8.514750681532774	46.27224839967385
Alpe del Pianaccio	place	hamlet	8.54937976012286	46.24380407597842	19	0.275	Onsernone, Circolo d'Onsernone, Distretto di Locarno, Ticino, Schweiz, Suisse, Svizzera, Svizra	8.54937976012286	46.24380407597842	8.54937976012286	46.24380407597842
Alpe Deva	place	hamlet	8.762811178115186	46.267289665756394	19	0.275	Maggia, Circolo della Maggia, Distretto di Vallemaggia, Ticino, Schweiz, Suisse, Svizzera, Svizra	8.762811178115186	46.267289665756394	8.762811178115186	46.267289665756394
Alpe di Casgèira	place	hamlet	8.64309019197404	46.24967182729503	19	0.275	Maggia, Circolo della Maggia, Distretto di Vallemaggia, Ticino, Schweiz, Suisse, Svizzera, Svizra	8.64309019197404	46.24967182729503	8.64309019197404	46.24967182729503
Alpe di Corgella	place	hamlet	9.026650691240775	46.141592131195424	19	0.275	Isone, Circolo di Giubiasco, Distretto di Bellinzona, Ticino, Schweiz, Suisse, Svizzera, Svizra	9.026650691240775	46.141592131195424	9.026650691240775	46.141592131195424
Alpe di Foppiana	place	hamlet	8.88341167735635	46.20505939911109	19	0.275	Vogorno, Circolo della Verzasca, Distretto di Locarno, Ticino, Schweiz, Suisse, Svizzera, Svizra	8.88341167735635	46.20505939911109	8.88341167735635	46.20505939911109
Alpe di Madèi	place	hamlet	8.497794761964997	46.23393103223031	19	0.275	Onsernone, Circolo d'Onsernone, Distretto di Locarno, Ticino, Schweiz, Suisse, Svizzera, Svizra	8.497794761964997	46.23393103223031	8.497794761964997	46.23393103223031
Alpe di Pii	place	hamlet	8.647256752222546	46.263998846751406	19	0.275	Maggia, Circolo della Maggia, Distretto di Vallemaggia, Ticino, Schweiz, Suisse, Svizzera, Svizra	8.647256752222546	46.263998846751406	8.647256752222546	46.263998846751406
Alpe di Porcaresc	place	hamlet	8.489861625887386	46.24441017139686	19	0.275	Onsernone, Circolo d'Onsernone, Distretto di Locarno, Ticino, Schweiz, Suisse, Svizzera, Svizra	8.489861625887386	46.24441017139686	8.489861625887386	46.24441017139686
Alpe di Sassello	place	hamlet	8.912965932670033	46.20792927893864	19	0.275	Cugnasco-Gerra, Circolo della Navegna, Distretto di Locarno, Ticino, Schweiz, Suisse, Svizzera, Svizra	8.912965932670033	46.20792927893864	8.912965932670033	46.20792927893864
Alpe di Sfii	place	hamlet	8.479558339049419	46.26110013317693	19	0.275	Campo (Vallemaggia), Circolo della Rovana, Distretto di Vallemaggia, Ticino, Schweiz, Suisse, Svizzera, Svizra	8.479558339049419	46.26110013317693	8.479558339049419	46.26110013317693
Alpe di Tramossa	place	hamlet	8.632552463304279	46.26948597584496	19	0.275	Maggia, Circolo della Maggia, Distretto di Vallemaggia, Ticino, Schweiz, Suisse, Svizzera, Svizra	8.632552463304279	46.26948597584496	8.632552463304279	46.26948597584496
Alpe Frignago	place	hamlet	8.675307294106913	46.108311868464035	19	0.275	8.675307294106913	46.108311868464035	8.675307294106913	46.108311868464035
Alpe Gelato	place	hamlet	8.455262470691622	46.25778592866213	19	0.275	Campo (Vallemaggia), Circolo della Rovana, Distretto di Vallemaggia, Ticino, Schweiz, Suisse, Svizzera, Svizra	8.455262470691622	46.25778592866213	8.455262470691622	46.25778592866213
Alp Egg	place	hamlet	9.61217105199759	47.03935514897195	19	0.275	Maienfeld, Landquart, Graubünden - Grigioni - Grischun, Schweiz, Suisse, Svizzera, Svizra	9.61217105199759	47.03935514897195	9.61217105199759	47.03935514897195
Alpe Laorina	place	hamlet	9.059970097460024	45.900348552644985	19	0.275	Breggia, Circolo di Caneggio, Distretto di Mendrisio, Ticino, Schweiz, Suisse, Svizzera, Svizra	9.059970097460024	45.900348552644985	9.059970097460024	45.900348552644985
Alpeli	place	hamlet	8.220976626146495	46.94118914885085	19	0.275	Alpnach, Obwalden, Schweiz, Suisse, Svizzera, Svizra	8.220976626146495	46.94118914885085	8.220976626146495	46.94118914885085
Alpe Masnée	place	hamlet	8.762471962493748	46.27634002570801	19	0.275	Maggia, Circolo della Maggia, Distretto di Vallemaggia, Ticino, Schweiz, Suisse, Svizzera, Svizra	8.762471962493748	46.27634002570801	8.762471962493748	46.27634002570801
Alpe Morisciöi	place	hamlet	8.714323879913167	46.279678537741994	19	0.275	Maggia, Circolo della Maggia, Distretto di Vallemaggia, Ticino, Schweiz, Suisse, Svizzera, Svizra	8.714323879913167	46.279678537741994	8.714323879913167	46.279678537741994
Alpenblick	place	hamlet	8.529278028475034	47.20985253107183	19	0.275	Baar, Zug, Schweiz, Suisse, Svizzera, Svizra	8.529278028475034	47.20985253107183	8.529278028475034	47.20985253107183
Alpe Pian Segno	place	hamlet	8.838822131768069	46.53343646536855	19	0.275	Blenio, Circolo d'Olivone, Distretto di Blenio, Ticino, Schweiz, Suisse, Svizzera, Svizra	8.838822131768069	46.53343646536855	8.838822131768069	46.53343646536855
Alpe Presa-Bruciata	place	hamlet	8.129393186044638	46.203183948276006	19	0.275	Zwischbergen, Brig, Valais - Wallis, Schweiz, Suisse, Svizzera, Svizra	8.129393186044638	46.203183948276006	8.129393186044638	46.203183948276006
Alpe Presa-Cima	place	hamlet	8.140068377926411	46.202667874497614	19	0.275	Zwischbergen, Brig, Valais - Wallis, Schweiz, Suisse, Svizzera, Svizra	8.140068377926411	46.202667874497614	8.140068377926411	46.202667874497614
Alpe Ribia	place	hamlet	8.54187242472645	46.251388943979144	19	0.275	Onsernone, Circolo d'Onsernone, Distretto di Locarno, Ticino, Schweiz, Suisse, Svizzera, Svizra	8.54187242472645	46.251388943979144	8.54187242472645	46.251388943979144
Alpe Spluga	place	hamlet	8.678998935721609	46.31507707504341	19	0.275	Maggia, Circolo della Maggia, Distretto di Vallemaggia, Ticino, Schweiz, Suisse, Svizzera, Svizra	8.678998935721609	46.31507707504341	8.678998935721609	46.31507707504341
Alpe Vallescia	place	hamlet	8.145451990515738	46.21185293163321	19	0.275	8.145451990515738	46.21185293163321	8.145451990515738	46.21185293163321
Alpe Zot	place	hamlet	8.724156439068935	46.166404073331584	19	0.275	Losone, Circolo dell'Isole, Distretto di Locarno, Ticino, Schweiz, Suisse, Svizzera, Svizra	8.724156439068935	46.166404073331584	8.724156439068935	46.166404073331584
Alp Grüm	place	hamlet	10.033794695584618	46.375068367713006	19	0.275	Poschiavo, Bernina, Graubünden - Grigioni - Grischun, Schweiz, Suisse, Svizzera, Svizra	10.033794695584618	46.375068367713006	10.033794695584618	46.375068367713006
Alp Hüttenboden 1836m	place	hamlet	8.802692021957682	46.9271893588943	19	0.275	Bürglen (UR), Uri, Schweiz, Suisse, Svizzera, Svizra	8.802692021957682	46.9271893588943	8.802692021957682	46.9271893588943
Alpiglen	place	hamlet	8.11605497970558	46.66739067746965	19	0.275	Grindelwald, Verwaltungskreis Interlaken-Oberhasli, Verwaltungsregion Oberland, Bern - Berne, Schweiz, Suisse, Svizzera, Svizra	8.11605497970558	46.66739067746965	8.11605497970558	46.66739067746965
Alp Ijes	place	hamlet	9.60909204368582	47.048160086798624	19	0.275	Maienfeld, Landquart, Graubünden - Grigioni - Grischun, Schweiz, Suisse, Svizzera, Svizra	9.60909204368582	47.048160086798624	9.60909204368582	47.048160086798624
Alp Laret	place	hamlet	10.22194285702534	46.803743287344794	19	0.275	Scuol, Inn, Graubünden - Grigioni - Grischun, Schweiz, Suisse, Svizzera, Svizra	10.22194285702534	46.803743287344794	10.22194285702534	46.803743287344794
Alplen	place	hamlet	8.664495225746293	46.93949105908692	19	0.275	Sisikon, Uri, Schweiz, Suisse, Svizzera, Svizra	8.664495225746293	46.93949105908692	8.664495225746293	46.93949105908692
Alplen	place	hamlet	8.81199157589063	46.902687547175546	19	0.275	Unterschächen, Uri, Schweiz, Suisse, Svizzera, Svizra	8.81199157589063	46.902687547175546	8.81199157589063	46.902687547175546
Alpnach	boundary	administrative	8.229388704912985	46.95004647357237	16	0.35	Alpnach, Obwalden, Schweiz, Suisse, Svizzera, Svizra	8.150001268463171	46.91979995687558	8.310966582636041	46.98036448790321
Alpnach	place	village	8.273682871491872	46.941166098617124	19	0.275	Alpnach, Obwalden, Schweiz, Suisse, Svizzera, Svizra	8.273682871491872	46.941166098617124	8.273682871491872	46.941166098617124
Alpnachstad	place	hamlet	8.274340431795823	46.95341817794296	19	0.275	Alpnach, Obwalden, Schweiz, Suisse, Svizzera, Svizra	8.274340431795823	46.95341817794296	8.274340431795823	46.95341817794296
Alp Naul	place	hamlet	9.087468774839436	46.70790209188787	19	0.275	Obersaxen-Mundaun, Surselva, Graubünden - Grigioni - Grischun, Schweiz, Suisse, Svizzera, Svizra	9.087468774839436	46.70790209188787	9.087468774839436	46.70790209188787
Alp Nova	place	hamlet	9.093981429786226	46.699491690243576	19	0.275	Obersaxen-Mundaun, Surselva, Graubünden - Grigioni - Grischun, Schweiz, Suisse, Svizzera, Svizra	9.093981429786226	46.699491690243576	9.093981429786226	46.699491690243576
Alp Oberberg	place	hamlet	7.810298742275677	46.728152769955074	19	0.275	Beatenberg, Verwaltungskreis Interlaken-Oberhasli, Verwaltungsregion Oberland, Bern - Berne, Schweiz, Suisse, Svizzera, Svizra	7.810298742275677	46.728152769955074	7.810298742275677	46.728152769955074
Alp Oberburgfeld	place	hamlet	7.7967623877456145	46.717431393786796	19	0.275	Beatenberg, Verwaltungskreis Interlaken-Oberhasli, Verwaltungsregion Oberland, Bern - Berne, Schweiz, Suisse, Svizzera, Svizra	7.7967623877456145	46.717431393786796	7.7967623877456145	46.717431393786796
Alp Prada	place	hamlet	9.07857213899203	46.71574596069666	19	0.275	Obersaxen-Mundaun, Surselva, Graubünden - Grigioni - Grischun, Schweiz, Suisse, Svizzera, Svizra	9.07857213899203	46.71574596069666	9.07857213899203	46.71574596069666
Alp Praditschöl	place	hamlet	10.353768484815504	46.68015287942258	19	0.275	Scuol, Inn, Graubünden - Grigioni - Grischun, Schweiz, Suisse, Svizzera, Svizra	10.353768484815504	46.68015287942258	10.353768484815504	46.68015287942258
Alp Prasüra	place	hamlet	9.774392394361001	46.4276671570597	19	0.275	Sils im Engadin/Segl, Maloja, Graubünden - Grigioni - Grischun, Schweiz, Suisse, Svizzera, Svizra	9.774392394361001	46.4276671570597	9.774392394361001	46.4276671570597
Alp Prosot	place	hamlet	9.683934643855338	46.637168049196895	19	0.275	Filisur, Albula, Graubünden - Grigioni - Grischun, Schweiz, Suisse, Svizzera, Svizra	9.683934643855338	46.637168049196895	9.683934643855338	46.637168049196895
Alp Rindermatt	place	hamlet	8.761331688386036	46.906028154685366	19	0.275	Bürglen (UR), Uri, Schweiz, Suisse, Svizzera, Svizra	8.761331688386036	46.906028154685366	8.761331688386036	46.906028154685366
Alp Sezner	place	hamlet	9.115354025593206	46.70325432657814	19	0.275	Lumnezia, Surselva, Graubünden - Grigioni - Grischun, Schweiz, Suisse, Svizzera, Svizra	9.115354025593206	46.70325432657814	9.115354025593206	46.70325432657814
Alp Stätz	place	hamlet	9.535252757326163	46.75964944751017	19	0.275	Churwalden, Plessur, Graubünden - Grigioni - Grischun, Schweiz, Suisse, Svizzera, Svizra	9.535252757326163	46.75964944751017	9.535252757326163	46.75964944751017
Alp Stürvis	place	hamlet	9.618152461921227	47.03968028299606	19	0.275	Maienfeld, Landquart, Graubünden - Grigioni - Grischun, Schweiz, Suisse, Svizzera, Svizra	9.618152461921227	47.03968028299606	9.618152461921227	47.03968028299606
Alpthal	boundary	administrative	8.712579425041675	47.056573170651966	16	0.35	Alpthal, Schwyz, Schwyz, Schweiz, Suisse, Svizzera, Svizra	8.686408370488948	47.02245396323191	8.744681624465073	47.09136469052556
Alpthal	place	village	8.713891038433275	47.073493886226395	19	0.275	Alpthal, Schwyz, Schwyz, Schweiz, Suisse, Svizzera, Svizra	8.713891038433275	47.073493886226395	8.713891038433275	47.073493886226395
Alp Trida	place	hamlet	10.375243172203142	46.97794496773313	19	0.275	Samnaun, Inn, Graubünden - Grigioni - Grischun, Schweiz, Suisse, Svizzera, Svizra	10.375243172203142	46.97794496773313	10.375243172203142	46.97794496773313
Alsen	place	neighbourhood	8.553177097536576	47.29951735353728	22	0.19999999999999996	Thalwil, Bezirk Horgen, Zürich, Schweiz, Suisse, Svizzera, Svizra	8.553177097536576	47.29951735353728	8.553177097536576	47.29951735353728
Altanca	place	hamlet	8.681007491179088	46.524344531177235	19	0.275	Quinto, Circolo di Quinto, Distretto di Leventina, Ticino, Schweiz, Suisse, Svizzera, Svizra	8.681007491179088	46.524344531177235	8.681007491179088	46.524344531177235
Al Tarc	place	hamlet	9.12627086774347	46.370669377289516	19	0.275	Rossa, Moësa, Graubünden - Grigioni - Grischun, Schweiz, Suisse, Svizzera, Svizra	9.12627086774347	46.370669377289516	9.12627086774347	46.370669377289516
Altavilla	place	hamlet	7.1535795622969545	46.93445479256512	19	0.275	Murten, Seebezirk / District du Lac, Fribourg - Freiburg, Schweiz, Suisse, Svizzera, Svizra	7.1535795622969545	46.93445479256512	7.1535795622969545	46.93445479256512
Altbrugg	place	hamlet	9.061934983201951	47.44426678637358	19	0.275	Jonschwil, Wahlkreis Wil, Sankt Gallen, Schweiz, Suisse, Svizzera, Svizra	9.061934983201951	47.44426678637358	9.061934983201951	47.44426678637358
Altbuch	place	hamlet	9.218596441552336	47.51836473826518	19	0.275	Hohentannen, Bezirk Weinfelden, Thurgau, Schweiz, Suisse, Svizzera, Svizra	9.218596441552336	47.51836473826518	9.218596441552336	47.51836473826518
Altbüron	boundary	administrative	7.882191659375624	47.19079124506496	16	0.35	Altbüron, Luzern, Schweiz, Suisse, Svizzera, Svizra	7.859394231371966	47.17615887287592	7.917749041265979	47.20557591643465
Altbüron	place	village	7.882633728472798	47.1815992309497	19	0.275	Altbüron, Luzern, Schweiz, Suisse, Svizzera, Svizra	7.882633728472798	47.1815992309497	7.882633728472798	47.1815992309497
Altdorf	place	village	8.641392186029123	46.882073178329634	19	0.275	Altdorf (UR), Uri, Schweiz, Suisse, Svizzera, Svizra	8.641392186029123	46.882073178329634	8.641392186029123	46.882073178329634
Altdorf (SH)	place	village	8.659317472698918	47.78419822233674	19	0.275	Thayngen, Schaffhausen, Schweiz, Suisse, Svizzera, Svizra	8.659317472698918	47.78419822233674	8.659317472698918	47.78419822233674
Altdorf (UR)	boundary	administrative	8.638398977671383	46.88646701388271	16	0.35	Altdorf (UR), Uri, Schweiz, Suisse, Svizzera, Svizra	8.615513562895103	46.863638691042055	8.66731682581158	46.90975919124499
Alte Aare Bucht	place	hamlet	7.829976349622938	46.67184205478798	19	0.275	Unterseen, Verwaltungskreis Interlaken-Oberhasli, Verwaltungsregion Oberland, Bern - Berne, Schweiz, Suisse, Svizzera, Svizra	7.829976349622938	46.67184205478798	7.829976349622938	46.67184205478798
Alten	place	hamlet	9.279713088541996	47.50143337767373	19	0.275	Hauptwil-Gottshaus, Bezirk Weinfelden, Thurgau, Schweiz, Suisse, Svizzera, Svizra	9.279713088541996	47.50143337767373	9.279713088541996	47.50143337767373
Alten	place	village	8.647068159401158	47.599143486081225	19	0.275	Kleinandelfingen, Bezirk Andelfingen, Zürich, Schweiz, Suisse, Svizzera, Svizra	8.647068159401158	47.599143486081225	8.647068159401158	47.599143486081225
Altenalp	place	hamlet	9.390163857411324	47.27220207219931	19	0.275	Schwende, Appenzell Innerrhoden, Schweiz, Suisse, Svizzera, Svizra	9.390163857411324	47.27220207219931	9.390163857411324	47.27220207219931
Altenberg	place	hamlet	8.421172767570766	47.34728129349541	19	0.275	Birmensdorf (ZH), Bezirk Dietikon, Zürich, Schweiz, Suisse, Svizzera, Svizra	8.421172767570766	47.34728129349541	8.421172767570766	47.34728129349541
Altendorf	boundary	administrative	8.82604351922169	47.17180397126306	16	0.35	Altendorf, March, Schwyz, Schweiz, Suisse, Svizzera, Svizra	8.793865039725661	47.129350218422445	8.85715888606464	47.214419243377876
Altendorf	place	village	8.829498270315923	47.19163739819032	19	0.275	Altendorf, March, Schwyz, Schweiz, Suisse, Svizzera, Svizra	8.829498270315923	47.19163739819032	8.829498270315923	47.19163739819032
Altenei	place	hamlet	7.804325630436182	46.931350722362865	19	0.275	Langnau im Emmental, Verwaltungskreis Emmental, Verwaltungsregion Emmental-Oberaargau, Bern - Berne, Schweiz, Suisse, Svizzera, Svizra	7.804325630436182	46.931350722362865	7.804325630436182	46.931350722362865
Altenklingen	place	hamlet	9.079079579410148	47.60272691732599	19	0.275	Wigoltingen, Bezirk Weinfelden, Thurgau, Schweiz, Suisse, Svizzera, Svizra	9.079079579410148	47.60272691732599	9.079079579410148	47.60272691732599
Altenrhein	place	village	9.554054036696614	47.4903838499962	19	0.275	Thal, Wahlkreis Rorschach, Sankt Gallen, Schweiz, Suisse, Svizzera, Svizra	9.554054036696614	47.4903838499962	9.554054036696614	47.4903838499962
Alte Post	place	neighbourhood	8.350039662469698	47.43347173327643	22	0.19999999999999996	Killwangen, Bezirk Baden, Aargau, Schweiz, Suisse, Svizzera, Svizra	8.350039662469698	47.43347173327643	8.350039662469698	47.43347173327643
Alterschwil	place	hamlet	9.202728157740353	47.39526266002188	19	0.275	Flawil, Wahlkreis Wil, Sankt Gallen, Schweiz, Suisse, Svizzera, Svizra	9.202728157740353	47.39526266002188	9.202728157740353	47.39526266002188
Alterswil	boundary	administrative	7.2825546594790325	46.790213596427755	16	0.35	Alterswil, Sensebezirk, Fribourg - Freiburg, Schweiz, Suisse, Svizzera, Svizra	7.215073897843638	46.763791784058554	7.304660936247642	46.81662845181732
Alterswil	place	village	7.260402392015692	46.795235990899776	19	0.275	Alterswil, Sensebezirk, Fribourg - Freiburg, Schweiz, Suisse, Svizzera, Svizra	7.260402392015692	46.795235990899776	7.260402392015692	46.795235990899776
Alterswilen	place	hamlet	9.154125356912601	47.60989897659541	19	0.275	Kemmental, Bezirk Kreuzlingen, Thurgau, Schweiz, Suisse, Svizzera, Svizra	9.154125356912601	47.60989897659541	9.154125356912601	47.60989897659541
Alterszentrum Moosmatt	place	neighbourhood	7.844236397673	47.27492694510196	22	0.19999999999999996	Murgenthal, Bezirk Zofingen, Aargau, Schweiz, Suisse, Svizzera, Svizra	7.844236397673	47.27492694510196	7.844236397673	47.27492694510196
Altgonzenbach	place	hamlet	9.070467425356469	47.389921040767476	19	0.275	Lütisburg, Wahlkreis Toggenburg, Sankt Gallen, Schweiz, Suisse, Svizzera, Svizra	9.070467425356469	47.389921040767476	9.070467425356469	47.389921040767476
Althus	place	hamlet	8.104037426030573	47.069628571577944	19	0.275	Ruswil, Luzern, Schweiz, Suisse, Svizzera, Svizra	8.104037426030573	47.069628571577944	8.104037426030573	47.069628571577944
Altikon	boundary	administrative	8.784468013727087	47.57817137760789	16	0.35	Altikon, Bezirk Winterthur, Zürich, Schweiz, Suisse, Svizzera, Svizra	8.761456243467194	47.56368434761986	8.810225257434865	47.592859489453
Altikon	place	village	8.780834616871116	47.57339277078964	19	0.275	Altikon, Bezirk Winterthur, Zürich, Schweiz, Suisse, Svizzera, Svizra	8.780834616871116	47.57339277078964	8.780834616871116	47.57339277078964
Altirolo	place	hamlet	8.862308140641234	46.40761429190741	19	0.275	Giornico, Circolo di Giornico, Distretto di Leventina, Ticino, Schweiz, Suisse, Svizzera, Svizra	8.862308140641234	46.40761429190741	8.862308140641234	46.40761429190741
Altisberg	place	hamlet	7.379949788942127	46.99389246053011	19	0.275	Wohlen bei Bern, Verwaltungskreis Bern-Mittelland, Verwaltungsregion Bern-Mittelland, Bern - Berne, Schweiz, Suisse, Svizzera, Svizra	7.379949788942127	46.99389246053011	7.379949788942127	46.99389246053011
Altishausen	place	hamlet	9.171048838515077	47.600664047135936	19	0.275	Kemmental, Bezirk Kreuzlingen, Thurgau, Schweiz, Suisse, Svizzera, Svizra	9.171048838515077	47.600664047135936	9.171048838515077	47.600664047135936
Altishofen	boundary	administrative	7.959870725584001	47.20085091188717	16	0.35	Altishofen, Luzern, Schweiz, Suisse, Svizzera, Svizra	7.940729956653912	47.18784668248008	7.977466497158902	47.213756234836815
Altishofen	place	village	7.96117693889343	47.20091398570856	19	0.275	Altishofen, Luzern, Schweiz, Suisse, Svizzera, Svizra	7.96117693889343	47.20091398570856	7.96117693889343	47.20091398570856
Altkirch	place	hamlet	8.355743547579266	47.17158319193348	19	0.275	Abtwil, Bezirk Muri, Aargau, Schweiz, Suisse, Svizzera, Svizra	8.355743547579266	47.17158319193348	8.355743547579266	47.17158319193348
Altlandenberg	place	neighbourhood	8.867328230089925	47.371959376637946	22	0.19999999999999996	Bauma, Bezirk Pfäffikon, Zürich, Schweiz, Suisse, Svizzera, Svizra	8.867328230089925	47.371959376637946	8.867328230089925	47.371959376637946
Altmüli	place	hamlet	9.37042548126607	47.467779868794	19	0.275	Wittenbach, Wahlkreis St. Gallen, Sankt Gallen, Schweiz, Suisse, Svizzera, Svizra	9.37042548126607	47.467779868794	9.37042548126607	47.467779868794
Altnau	boundary	administrative	9.258983849554237	47.60496090406928	16	0.35	Altnau, Bezirk Kreuzlingen, Thurgau, Schweiz, Suisse, Svizzera, Svizra	9.238796828200492	47.58553622065032	9.281047152251093	47.623867753510204
Altnau	place	village	9.260704943801244	47.612409943329105	19	0.275	, Altnau, Bezirk Kreuzlingen, Thurgau, Schweiz, Suisse, Svizzera, Svizra	9.260704943801244	47.612409943329105	9.260704943801244	47.612409943329105
Alto Malcantone	boundary	administrative	8.880576431257396	46.05526955071089	16	0.35	Alto Malcantone, Circolo di Breno, Distretto di Lugano, Ticino, Schweiz, Suisse, Svizzera, Svizra	8.828602663961817	46.02590719907036	8.913952734130646	46.08432529233336
Alto Malcantone	place	village	8.882420936401246	46.05215395539178	19	0.275	Alto Malcantone, Circolo di Breno, Distretto di Lugano, Ticino, Schweiz, Suisse, Svizzera, Svizra	8.882420936401246	46.05215395539178	8.882420936401246	46.05215395539178
Altreu	place	hamlet	7.447989971772159	47.192633922658594	19	0.275	Selzach, Bezirk Lebern, Amtei Solothurn-Lebern, Solothurn, Schweiz, Suisse, Svizzera, Svizra	7.447989971772159	47.192633922658594	7.447989971772159	47.192633922658594
Alt Sankt Johann	place	village	9.284056590766513	47.194092876724994	19	0.275	Alt St. Johann, Wildhaus-Alt St. Johann, Wahlkreis Toggenburg, Sankt Gallen, Schweiz, Suisse, Svizzera, Svizra	9.284056590766513	47.194092876724994	9.284056590766513	47.194092876724994
Altschwändi	place	hamlet	8.938043748774874	47.3432396236042	19	0.275	Fischenthal, Bezirk Hinwil, Zürich, Schweiz, Suisse, Svizzera, Svizra	8.938043748774874	47.3432396236042	8.938043748774874	47.3432396236042
Altshof	place	hamlet	9.146042855320445	47.59157362168717	19	0.275	Kemmental, Bezirk Kreuzlingen, Thurgau, Schweiz, Suisse, Svizzera, Svizra	9.146042855320445	47.59157362168717	9.146042855320445	47.59157362168717
Altstadt	place	quarter	8.306856264957815	47.05267784879015	Luzern, Luzern, Schweiz, Suisse, Svizzera, Svizra	8.306856264957815	47.05267784879015	8.306856264957815	47.05267784879015
Altstadt	place	suburb	7.451272827969091	46.94828878847686	20	0.25	Bern, Verwaltungskreis Bern-Mittelland, Verwaltungsregion Bern-Mittelland, Bern - Berne, Schweiz, Suisse, Svizzera, Svizra	7.451272827969091	46.94828878847686	7.451272827969091	46.94828878847686
Altstadt	place	suburb	8.515311766131191	47.165970334292375	20	0.25	Zug, Zug, Schweiz, Suisse, Svizzera, Svizra	8.515311766131191	47.165970334292375	8.515311766131191	47.165970334292375
Altstadt	place	suburb	8.541384436483234	47.373017088999376	20	0.25	Altstadt, Zürich, Bezirk Zürich, Zürich, Schweiz, Suisse, Svizzera, Svizra	8.529205357374508	47.36320607133477	8.550800241253652	47.38296976082762
Altstadt	place	suburb	8.541800424178206	47.37168746769893	20	0.25	Lindenhof, Altstadt, Zürich, Bezirk Zürich, Zürich, Schweiz, Suisse, Svizzera, Svizra	8.541800424178206	47.37168746769893	8.541800424178206	47.37168746769893
Altstadt	place	suburb	8.726387031141455	47.498731471185735	20	0.25	Winterthur, Bezirk Winterthur, Zürich, Schweiz, Suisse, Svizzera, Svizra	8.726387031141455	47.498731471185735	8.726387031141455	47.498731471185735
Altstalden	place	hamlet	8.137737957387088	47.48656195360617	19	0.275	Bözberg, Bezirk Brugg, Aargau, Schweiz, Suisse, Svizzera, Svizra	8.137737957387088	47.48656195360617	8.137737957387088	47.48656195360617
Altstätten	boundary	administrative	9.543950333100062	47.36327518012644	16	0.35	Altstätten, Wahlkreis Rheintal, Sankt Gallen, Schweiz, Suisse, Svizzera, Svizra	9.483953833523628	47.268929693381324	9.59320096109721	47.40026824877806
Altstätten	place	town	9.541276495860844	47.378347057408405	18	0.3	Altstätten, Wahlkreis Rheintal, Sankt Gallen, Schweiz, Suisse, Svizzera, Svizra	9.541276495860844	47.378347057408405	9.541276495860844	47.378347057408405
Altstetten	place	suburb	8.47988399053618	47.388787053087135	20	0.25	Altstetten, Kreis 9, Zürich, Bezirk Zürich, Zürich, Schweiz, Suisse, Svizzera, Svizra	8.448006089476252	47.373573395913006	8.505822445910411	47.40389459536707
Altstetten	place	suburb	8.486061187169497	47.387402865597075	20	0.25	Kreis 9, Altstetten, Zürich, Bezirk Zürich, Zürich, Schweiz, Suisse, Svizzera, Svizra	8.486061187169497	47.387402865597075	8.486061187169497	47.387402865597075
Alt St. Johann	boundary	administrative	9.28222635111333	47.18680233925418	20	0.25	Alt St. Johann, Wildhaus-Alt St. Johann, Wahlkreis Toggenburg, Sankt Gallen, Schweiz, Suisse, Svizzera, Svizra	9.219231454536754	47.144723886128176	9.338185999451724	47.22881608408771
Alt-Wiedikon	place	suburb	8.515663541376831	47.36094727415805	20	0.25	Alt-Wiedikon, Wiedikon, Zürich, Bezirk Zürich, Zürich, Schweiz, Suisse, Svizzera, Svizra	8.505816578578163	47.351418097987654	8.524782981441149	47.370589186926146
Altwis	boundary	administrative	8.251068100339667	47.24064667941246	16	0.35	Altwis, Luzern, Schweiz, Suisse, Svizzera, Svizra	8.237569357849765	47.23200405714073	8.266940887674252	47.249332384666495
Altwis	place	village	8.251631928261048	47.238494919139264	19	0.275	Altwis, Luzern, Schweiz, Suisse, Svizzera, Svizra	8.251631928261048	47.238494919139264	8.251631928261048	47.238494919139264
Alt Zeneggen	place	hamlet	7.861265239798372	46.27885962580192	19	0.275	Zeneggen, Visp, Valais - Wallis, Schweiz, Suisse, Svizzera, Svizra	7.861265239798372	46.27885962580192	7.861265239798372	46.27885962580192
Alvaneu	place	village	9.646581949648064	46.67854514657488	19	0.275	Albula/Alvra, Albula, Graubünden - Grigioni - Grischun, Schweiz, Suisse, Svizzera, Svizra	9.646581949648064	46.67854514657488	9.646581949648064	46.67854514657488
Alvaneu Bad	place	village	9.647978374716756	46.66956008164902	19	0.275	Albula/Alvra, Albula, Graubünden - Grigioni - Grischun, Schweiz, Suisse, Svizzera, Svizra	9.647978374716756	46.66956008164902	9.647978374716756	46.66956008164902
Alvaschein	place	village	9.550175562460169	46.6754206245289	19	0.275	Albula/Alvra, Albula, Graubünden - Grigioni - Grischun, Schweiz, Suisse, Svizzera, Svizra	9.550175562460169	46.6754206245289	9.550175562460169	46.6754206245289
Alznach	place	hamlet	8.4492855869957	47.161346876501874	19	0.275	Risch-Rotkreuz, Zug, Schweiz, Suisse, Svizzera, Svizra	8.4492855869957	47.161346876501874	8.4492855869957	47.161346876501874
Alzoi	place	hamlet	8.699884459135177	46.26216857437445	19	0.275	Maggia, Circolo della Maggia, Distretto di Vallemaggia, Ticino, Schweiz, Suisse, Svizzera, Svizra	8.699884459135177	46.26216857437445	8.699884459135177	46.26216857437445
Am Bach	place	village	9.537314537868781	46.45843737506677	19	0.275	Avers, Hinterrhein, Graubünden - Grigioni - Grischun, Schweiz, Suisse, Svizzera, Svizra	9.537314537868781	46.45843737506677	9.537314537868781	46.45843737506677
Ambrì	place	hamlet	8.695695686843266	46.50999689223899	19	0.275	Quinto, Circolo di Quinto, Distretto di Leventina, Ticino, Schweiz, Suisse, Svizzera, Svizra	8.695695686843266	46.50999689223899	8.695695686843266	46.50999689223899
Amden	boundary	administrative	9.165500328311824	47.155303189037625	16	0.35	Amden, Wahlkreis See-Gaster, Sankt Gallen, Schweiz, Suisse, Svizzera, Svizra	9.105963947105975	47.12369989367411	9.237971462194992	47.186787629014106
Amden	place	village	9.141122761976618	47.14963165807429	19	0.275	Amden, Wahlkreis See-Gaster, Sankt Gallen, Schweiz, Suisse, Svizzera, Svizra	9.141122761976618	47.14963165807429	9.141122761976618	47.14963165807429
Ameismühle	place	hamlet	7.212406440977702	46.80456312129418	19	0.275	Tafers, Sensebezirk, Fribourg - Freiburg, Schweiz, Suisse, Svizzera, Svizra	7.212406440977702	46.80456312129418	7.212406440977702	46.80456312129418
Am Holz	place	neighbourhood	8.037847045411894	47.3634145292667	22	0.19999999999999996	Oberentfelden, Oberentfelden, Bezirk Aarau, Aargau, Schweiz, Suisse, Svizzera, Svizra	8.037847045411894	47.3634145292667	8.037847045411894	47.3634145292667
Ämligen	place	hamlet	7.597197068354206	46.87562984172211	19	0.275	Tägertschi, Verwaltungskreis Bern-Mittelland, Verwaltungsregion Bern-Mittelland, Bern - Berne, Schweiz, Suisse, Svizzera, Svizra	7.597197068354206	46.87562984172211	7.597197068354206	46.87562984172211
Amlikon	place	village	9.056490937090755	47.56938035374045	19	0.275	Amlikon-Bissegg, Bezirk Weinfelden, Thurgau, Schweiz, Suisse, Svizzera, Svizra	9.056490937090755	47.56938035374045	9.056490937090755	47.56938035374045
Amlikon-Bissegg	boundary	administrative	9.040207162905864	47.561924357501	16	0.35	Amlikon-Bissegg, Bezirk Weinfelden, Thurgau, Schweiz, Suisse, Svizzera, Svizra	8.997011527247963	47.54244209040724	9.076250938546195	47.581390447521656
Ammere	place	hamlet	8.197441164044617	46.44521165386833	19	0.275	Blitzingen, Goms, Valais - Wallis, Schweiz, Suisse, Svizzera, Svizra	8.197441164044617	46.44521165386833	8.197441164044617	46.44521165386833
Ammerswil	boundary	administrative	8.203430468055128	47.367634607967005	16	0.35	Ammerswil, Bezirk Lenzburg, Aargau, Schweiz, Suisse, Svizzera, Svizra	8.189640881132304	47.35797635048775	8.222733724508773	47.37728741720919
Ammerswil	place	village	8.208050222710371	47.37189785346861	19	0.275	Ammerswil, Bezirk Lenzburg, Aargau, Schweiz, Suisse, Svizzera, Svizra	8.208050222710371	47.37189785346861	8.208050222710371	47.37189785346861
Ammerzwil	place	hamlet	7.341732249965391	47.07083657146331	19	0.275	Grossaffoltern, Verwaltungskreis Seeland, Verwaltungsregion Seeland, Bern - Berne, Schweiz, Suisse, Svizzera, Svizra	7.341732249965391	47.07083657146331	7.341732249965391	47.07083657146331
Ampferenboden	place	hamlet	9.25752317335656	47.26378328865183	19	0.275	Urnäsch, Hinterland, Appenzell Ausserrhoden, Schweiz, Suisse, Svizzera, Svizra	9.25752317335656	47.26378328865183	9.25752317335656	47.26378328865183
Am Rin	place	hamlet	9.90595323782992	46.745405241257096	19	0.275	Davos, Prättigau/Davos, Graubünden - Grigioni - Grischun, Schweiz, Suisse, Svizzera, Svizra	9.90595323782992	46.745405241257096	9.90595323782992	46.745405241257096
Amriswil	boundary	administrative	9.281125735042497	47.54523766466316	16	0.35	Amriswil, Bezirk Arbon, Thurgau, Schweiz, Suisse, Svizzera, Svizra	9.247401270903254	47.52213357720813	9.339571947141478	47.568156428239064
Amriswil	place	town	9.29812184338684	47.55002268363738	18	0.3	Amriswil, Bezirk Arbon, Thurgau, Schweiz, Suisse, Svizzera, Svizra	9.29812184338684	47.55002268363738	9.29812184338684	47.55002268363738
Amsleberg	place	hamlet	7.5162470782563275	46.94244668578398	19	0.275	Muri bei Bern, Verwaltungskreis Bern-Mittelland, Verwaltungsregion Bern-Mittelland, Bern - Berne, Schweiz, Suisse, Svizzera, Svizra	7.5162470782563275	46.94244668578398	7.5162470782563275	46.94244668578398
Amsoldingen	boundary	administrative	7.582557583150953	46.72906962443372	16	0.35	Amsoldingen, Verwaltungskreis Thun, Verwaltungsregion Oberland, Bern - Berne, Schweiz, Suisse, Svizzera, Svizra	7.56593147986959	46.71367361895606	7.608611041181688	46.74421635211097
Amsoldingen	place	village	7.580775830389883	46.728097030298976	19	0.275	Amsoldingen, Verwaltungskreis Thun, Verwaltungsregion Oberland, Bern - Berne, Schweiz, Suisse, Svizzera, Svizra	7.580775830389883	46.728097030298976	7.580775830389883	46.728097030298976
Amsteg	place	hamlet	8.67032567759378	46.77107859158243	19	0.275	Silenen, Uri, Schweiz, Suisse, Svizzera, Svizra	8.67032567759378	46.77107859158243	8.67032567759378	46.77107859158243
Amtei Bucheggberg-Wasseramt	boundary	administrative	7.499338361857371	47.15202783464403	10	0.5	Amtei Bucheggberg-Wasseramt, Solothurn, Schweiz, Suisse, Svizzera, Svizra	7.369704085778949	47.07434196718949	7.700798481226258	47.229805483938314
Amtei Dorneck-Thierstein	boundary	administrative	7.601416606981822	47.41301896752368	10	0.5	Amtei Dorneck-Thierstein, Solothurn, Schweiz, Suisse, Svizzera, Svizra	7.375945753796146	47.32934569708474	7.709877926381863	47.50269577611067
Amtei Olten-Gösgen	boundary	administrative	7.925280977405292	47.3646719823808	10	0.5	Amtei Olten-Gösgen, Solothurn, Schweiz, Suisse, Svizzera, Svizra	7.793501659773056	47.26643062895015	8.031366828430379	47.462808142926626
Amtei Solothurn-Lebern	boundary	administrative	7.456433677308173	47.21812756497988	10	0.5	Amtei Solothurn-Lebern, Solothurn, Schweiz, Suisse, Svizzera, Svizra	7.340412686948781	47.159517526134245	7.62076857263972	47.27634826442311
Amtei Thal-Gäu	boundary	administrative	7.689456085125592	47.30748728616982	10	0.5	Amtei Thal-Gäu, Solothurn, Schweiz, Suisse, Svizzera, Svizra	7.416180816866728	47.242728534613185	7.84056973412973	47.3724471195836
Amtmerswil	place	hamlet	7.273424768243159	46.88126097191217	19	0.275	Wünnewil-Flamatt, Sensebezirk, Fribourg - Freiburg, Schweiz, Suisse, Svizzera, Svizra	7.273424768243159	46.88126097191217	7.273424768243159	46.88126097191217
Andeer	boundary	administrative	9.438559369368612	46.582450482366006	16	0.35	Andeer, Hinterrhein, Graubünden - Grigioni - Grischun, Schweiz, Suisse, Svizzera, Svizra	9.333801258263607	46.54167218815071	9.500895839132113	46.62366715011723
Andeer	place	village	9.426968123693968	46.602266474934645	19	0.275	Andeer, Hinterrhein, Graubünden - Grigioni - Grischun, Schweiz, Suisse, Svizzera, Svizra	9.426968123693968	46.602266474934645	9.426968123693968	46.602266474934645
Andelfingen	boundary	administrative	8.675176689748245	47.59455498082696	16	0.35	Andelfingen, Bezirk Andelfingen, Zürich, Schweiz, Suisse, Svizzera, Svizra	8.639996850607844	47.58168314358047	8.714210053668069	47.60752958020634
Andelfingen	place	village	8.679433537401167	47.59533265380337	19	0.275	Andelfingen, Bezirk Andelfingen, Zürich, Schweiz, Suisse, Svizzera, Svizra	8.679433537401167	47.59533265380337	8.679433537401167	47.59533265380337
Andergia	place	hamlet	9.236436065171688	46.403787534013524	19	0.275	Mesocco, Moësa, Graubünden - Grigioni - Grischun, Schweiz, Suisse, Svizzera, Svizra	9.236436065171688	46.403787534013524	9.236436065171688	46.403787534013524
an der Halden	place	neighbourhood	8.700930855927368	47.25682354298976	22	0.19999999999999996	Männedorf, Bezirk Meilen, Zürich, Schweiz, Suisse, Svizzera, Svizra	8.700930855927368	47.25682354298976	8.700930855927368	47.25682354298976
Andermatt	boundary	administrative	8.626222765725831	46.62059639798012	16	0.35	Andermatt, Uri, Schweiz, Suisse, Svizzera, Svizra	8.546542318260549	46.56409872446275	8.681921537720145	46.677056436752245
Andermatt	place	village	8.594814788284225	46.6340498973973	19	0.275	Andermatt, Uri, Schweiz, Suisse, Svizzera, Svizra	8.594814788284225	46.6340498973973	8.594814788284225	46.6340498973973
Andiast	boundary	administrative	9.099047647547906	46.82622480894162	16	0.35	Andiast, Surselva, Graubünden - Grigioni - Grischun, Schweiz, Suisse, Svizzera, Svizra	9.05788937381621	46.77703192213046	9.12863774956162	46.87520907018278
Andiast	place	village	9.11417779312086	46.78495826886649	19	0.275	Andiast, Surselva, Graubünden - Grigioni - Grischun, Schweiz, Suisse, Svizzera, Svizra	9.11417779312086	46.78495826886649	9.11417779312086	46.78495826886649
Andwil	place	village	9.215846255302068	47.56648306508949	19	0.275	Birwinken, Bezirk Weinfelden, Thurgau, Schweiz, Suisse, Svizzera, Svizra	9.215846255302068	47.56648306508949	9.215846255302068	47.56648306508949
Andwil	place	village	9.272239867491521	47.438625933175864	19	0.275	Andwil (SG), Wahlkreis St. Gallen, Sankt Gallen, Schweiz, Suisse, Svizzera, Svizra	9.272239867491521	47.438625933175864	9.272239867491521	47.438625933175864
Andwil (SG)	boundary	administrative	9.281548196490645	47.44117679776868	16	0.35	Andwil (SG), Wahlkreis St. Gallen, Sankt Gallen, Schweiz, Suisse, Svizzera, Svizra	9.259734319413752	47.42696469420477	9.30431917113623	47.455484371209735
Anetswil	place	hamlet	8.974700325923607	47.50697172019561	19	0.275	Wängi, Bezirk Münchwilen, Thurgau, Schweiz, Suisse, Svizzera, Svizra	8.974700325923607	47.50697172019561	8.974700325923607	47.50697172019561
Angel	place	hamlet	8.864259782976148	47.280929896516795	19	0.275	Dürnten, Bezirk Hinwil, Zürich, Schweiz, Suisse, Svizzera, Svizra	8.864259782976148	47.280929896516795	8.864259782976148	47.280929896516795
Angeli Custodi	place	village	10.069506129331499	46.35793785310216	19	0.275	Poschiavo, Bernina, Graubünden - Grigioni - Grischun, Schweiz, Suisse, Svizzera, Svizra	10.069506129331499	46.35793785310216	10.069506129331499	46.35793785310216
Anglikon	place	village	8.263281432567737	47.36408818282475	19	0.275	Wohlen, Bezirk Bremgarten, Aargau, Schweiz, Suisse, Svizzera, Svizra	8.263281432567737	47.36408818282475	8.263281432567737	47.36408818282475
Angstorf	place	hamlet	7.212877420117025	46.831574391004054	19	0.275	Düdingen, Sensebezirk, Fribourg - Freiburg, Schweiz, Suisse, Svizzera, Svizra	7.212877420117025	46.831574391004054	7.212877420117025	46.831574391004054
Anières	boundary	administrative	6.215767290207109	46.2809341887469	16	0.35	Anières, Genève, Schweiz, Suisse, Svizzera, Svizra	6.192963083374138	46.2614573698902	6.249730947540314	46.30026465957423
Anières	place	village	6.223411436299359	46.27608018670961	19	0.275	Anières, Genève, Schweiz, Suisse, Svizzera, Svizra	6.223411436299359	46.27608018670961	6.223411436299359	46.27608018670961
Ännet Aa	place	neighbourhood	8.860160361772046	47.20270913791123	22	0.19999999999999996	Lachen, March, Schwyz, Schweiz, Suisse, Svizzera, Svizra	8.860160361772046	47.20270913791123	8.860160361772046	47.20270913791123
Anniviers	boundary	administrative	7.591856769774475	46.15338039790913	16	0.35	Anniviers, Sierre, Valais - Wallis, Schweiz, Suisse, Svizzera, Svizra	7.515126585440071	46.0273341342666	7.716143147546972	46.279714496106614
Annunziata	place	hamlet	10.067808542481773	46.307418865389906	19	0.275	Poschiavo, Bernina, Graubünden - Grigioni - Grischun, Schweiz, Suisse, Svizzera, Svizra	10.067808542481773	46.307418865389906	10.067808542481773	46.307418865389906
Anschwilen	place	hamlet	9.295943973485265	47.42793565386838	19	0.275	Gossau (SG), Wahlkreis St. Gallen, Sankt Gallen, Schweiz, Suisse, Svizzera, Svizra	9.295943973485265	47.42793565386838	9.295943973485265	47.42793565386838
Antagnes	place	hamlet	7.012928293379275	46.276782422557496	19	0.275	Ollon, District d'Aigle, Vaud, Schweiz, Suisse, Svizzera, Svizra	7.012928293379275	46.276782422557496	7.012928293379275	46.276782422557496
Äntenlös	place	neighbourhood	8.694371262322818	47.268245227168215	22	0.19999999999999996	Männedorf, Bezirk Meilen, Zürich, Schweiz, Suisse, Svizzera, Svizra	8.694371262322818	47.268245227168215	8.694371262322818	47.268245227168215
Antrona	place	hamlet	8.73385379812649	46.282450349302444	19	0.275	Maggia, Circolo della Maggia, Distretto di Vallemaggia, Ticino, Schweiz, Suisse, Svizzera, Svizra	8.73385379812649	46.282450349302444	8.73385379812649	46.282450349302444
Anwachs	place	hamlet	9.18899264919088	47.51257116679166	19	0.275	Kradolf-Schönenberg, Bezirk Weinfelden, Thurgau, Schweiz, Suisse, Svizzera, Svizra	9.18899264919088	47.51257116679166	9.18899264919088	47.51257116679166
Anwil	boundary	administrative	7.941301507989806	47.45250556855042	16	0.35	Anwil, Bezirk Sissach, Basel-Landschaft, Schweiz, Suisse, Svizzera, Svizra	7.922594284214454	47.4412714294555	7.958530352966392	47.463779689323474
Anwil	place	village	7.942188994539322	47.45265958602122	19	0.275	Anwil, Bezirk Sissach, Basel-Landschaft, Schweiz, Suisse, Svizzera, Svizra	7.942188994539322	47.45265958602122	7.942188994539322	47.45265958602122
