name	class	type	lon	lat	place_rank	importance	display_name	west	south	east	north
Cavargna	boundary	administrative	9.099570722477237	46.10568024423414	16	0.35	Cavargna	9.072372548128754	46.076457367462424	9.121825525395394	46.1348474651688
Villa di Chiavenna	boundary	administrative	9.493953590278696	46.32449384989226	16	0.35	Villa di Chiavenna	9.457897178766187	46.282846394227406	9.549537867266707	46.366171731865606
Formazza	boundary	administrative	8.390363665855626	46.391952286732526	16	0.35	Formazza	8.28862327862254	46.319584024379814	8.471135699826476	46.46422122353261
Madesimo	boundary	administrative	9.341154500056751	46.46160686602329	16	0.35	Madesimo	9.246983265392002	46.41367356971154	9.409294377938437	46.509509484569456
Livigno	boundary	administrative	10.134667706338051	46.52350487402681	16	0.35	Livigno	10.039154671206973	46.42106054097833	10.219102230039823	46.625935460754064
Schweiz, Suisse, Svizzera, Svizra	boundary	administrative	8.444947332582302	46.8133311787469	4	0.65	Schweiz, Suisse, Svizzera, Svizra	5.9559112946007815	45.81799492904168	10.49229401926934	47.80846475403339
Spiss	boundary	administrative	10.440222612771054	46.980059805722874	16	0.35	Spiss	10.38932979867653	46.944540233739616	10.483825363397983	47.01557744986838
Nauders	boundary	administrative	10.542293117498993	46.89014499299526	16	0.35	Nauders	10.464682772930303	46.83726654144919	10.624294158283563	46.94310458136406
Gaißau	boundary	administrative	9.571662125506357	47.4993346329381	16	0.35	Gaißau	9.550565991509984	47.46158974948134	9.607248276444752	47.53717565682427
Villars-le-Sec	boundary	administrative	6.987627752996144	47.457186861472806	16	0.35	Villars-le-Sec	6.9702925694207645	47.44711319687229	7.002126031845364	47.46721979002394
Challex	boundary	administrative	5.972576764335415	46.17655812038355	16	0.35	Challex	5.952045477038126	46.15610154086491	5.994939782709566	46.19702132160575
Les Gras	boundary	administrative	6.542919049435884	46.989213640269135	16	0.35	Les Gras	6.4965026426907855	46.96566204300364	6.586652022978683	47.01275593362211
Ferney-Voltaire	boundary	administrative	6.110144560304304	46.251989758798636	16	0.35	Ferney-Voltaire	6.0879459670561005	46.2376460593549	6.124459381298607	46.26627771858627
District de Lavaux-Oron	boundary	administrative	6.748819661802237	46.53624402574604	12	0.45	District de Lavaux-Oron, Vaud, Schweiz, Suisse, Svizzera, Svizra	6.63934309707932	46.472052268029586	6.902278789585722	46.600549190612426
District de la Riviera-Pays-d’Enhaut	boundary	administrative	7.128697936557819	46.46468109665024	12	0.45	District de la Riviera-Pays-d’Enhaut, Vaud, Schweiz, Suisse, Svizzera, Svizra	6.797332584168515	46.37539593248906	7.249189584864354	46.55406734656371
District d'Aigle	boundary	administrative	7.068938320778756	46.31469083694519	12	0.45	District d'Aigle, Vaud, Schweiz, Suisse, Svizzera, Svizra	6.858819878916505	46.18706789540624	7.230005252518879	46.44326277756145
District du Jura-Nord vaudois	boundary	administrative	6.502071076105624	46.72980266377575	12	0.45	District du Jura-Nord vaudois, Vaud, Schweiz, Suisse, Svizzera, Svizra	6.110526562748447	46.523457725821466	6.797940775062784	46.93608674911301
District du Gros-de-Vaud	boundary	administrative	6.659835600521678	46.65179740390079	12	0.45	District du Gros-de-Vaud, Vaud, Schweiz, Suisse, Svizzera, Svizra	6.507703296082525	46.560186554975544	6.8067758877408835	46.74341629945308
District de Lausanne	boundary	administrative	6.6445209696459475	46.55347969133222	12	0.45	District de Lausanne, Vaud, Schweiz, Suisse, Svizzera, Svizra	6.575473581630348	46.50430055084226	6.720813687183295	46.602577275904295
District de l'Ouest lausannois	boundary	administrative	6.566750921359194	46.546015858013305	12	0.45	District de l'Ouest lausannois, Vaud, Schweiz, Suisse, Svizzera, Svizra	6.526939093313473	46.507395820046185	6.612864245859015	46.58466464590831
District de Nyon	boundary	administrative	6.178235201327823	46.41996045809634	12	0.45	District de Nyon, Vaud, Schweiz, Suisse, Svizzera, Svizra	6.06385771843992	46.29485112359056	6.3797093715090805	46.545297864187454
District de la Broye-Vully	boundary	administrative	6.908532743988879	46.743845997719276	12	0.45	District de la Broye-Vully, Vaud, Schweiz, Suisse, Svizzera, Svizra	6.709925594960907	46.58110728238243	7.093409818908782	46.98048108017636
District de Morges	boundary	administrative	6.402731149654993	46.57497793186779	12	0.45	District de Morges, Vaud, Schweiz, Suisse, Svizzera, Svizra	6.238586117623696	46.45890718073966	6.570489869641448	46.69141103267012
Bourg-en-Lavaux	boundary	administrative	6.732174859095683	46.50476461491148	16	0.35	Bourg-en-Lavaux, District de Lavaux-Oron, Vaud, Schweiz, Suisse, Svizzera, Svizra	6.703703792054228	46.486236376036906	6.75574929197245	46.521692329375064
Adliswil	boundary	administrative	8.525265422877126	47.30826814426945	16	0.35	Adliswil, Bezirk Horgen, Zürich, Schweiz, Suisse, Svizzera, Svizra	8.503171752850818	47.286270090847644	8.540755619947618	47.33018162428824
Aesch (ZH)	boundary	administrative	8.435395537408487	47.33556888300541	16	0.35	Aesch (ZH), Bezirk Dietikon, Zürich, Schweiz, Suisse, Svizzera, Svizra	8.412412253830896	47.32446499868584	8.455225925593794	47.3466763715434
Bauma	boundary	administrative	8.895051773839558	47.3746771668324	16	0.35	Bauma, Bezirk Pfäffikon, Zürich, Schweiz, Suisse, Svizzera, Svizra	8.838058121293813	47.34750617995758	8.943705053816329	47.401718737122245
Bäretswil	boundary	administrative	8.86714917308424	47.34047862469885	16	0.35	Bäretswil, Bezirk Hinwil, Zürich, Schweiz, Suisse, Svizzera, Svizra	8.820733817081562	47.31501012808707	8.91579666900978	47.36597964309491
Dänikon	boundary	administrative	8.404492853830085	47.443451394832856	16	0.35	Dänikon, Bezirk Dielsdorf, Zürich, Schweiz, Suisse, Svizzera, Svizra	8.389802070020352	47.434568840582806	8.419840799337464	47.45234476173804
Dübendorf	boundary	administrative	8.616528516027882	47.38809001401923	16	0.35	Dübendorf, Bezirk Uster, Zürich, Schweiz, Suisse, Svizzera, Svizra	8.583050032808927	47.36681389391776	8.652868939311418	47.40932673917575
Egg	boundary	administrative	8.695995102592066	47.29803153547125	16	0.35	Egg, Bezirk Uster, Zürich, Schweiz, Suisse, Svizzera, Svizra	8.656180796893322	47.27535098558352	8.738403746626176	47.32077268651886
Elgg	boundary	administrative	8.86545475082402	47.488517703073654	16	0.35	Elgg, Bezirk Winterthur, Zürich, Schweiz, Suisse, Svizzera, Svizra	8.827213698786949	47.46388437929411	8.897693434535626	47.51313526887521
Ellikon an der Thur	boundary	administrative	8.827253872381167	47.56263103575756	16	0.35	Ellikon an der Thur, Bezirk Winterthur, Zürich, Schweiz, Suisse, Svizzera, Svizra	8.801711171648321	47.55161876563967	8.851102877202747	47.57339847048379
Fischenthal	boundary	administrative	8.940098729123958	47.34146747972573	16	0.35	Fischenthal, Bezirk Hinwil, Zürich, Schweiz, Suisse, Svizzera, Svizra	8.888338224765619	47.30712158373437	8.984940664668756	47.37591697604031
Greifensee	boundary	administrative	8.67752172424363	47.364720723147755	16	0.35	Greifensee, Bezirk Uster, Zürich, Schweiz, Suisse, Svizzera, Svizra	8.660213246691058	47.35042098678616	8.695998189728785	47.37939496294313
Hinwil	boundary	administrative	8.851123956830786	47.302815590526535	16	0.35	Hinwil, Bezirk Hinwil, Zürich, Schweiz, Suisse, Svizzera, Svizra	8.803767755410973	47.27874565636881	8.9097865929773	47.326677150571385
Hofstetten (ZH)	boundary	administrative	8.84952049633018	47.47478948677995	16	0.35	Hofstetten (ZH), Bezirk Winterthur, Zürich, Schweiz, Suisse, Svizzera, Svizra	8.818673796738608	47.44631113255759	8.894020065469846	47.50291387323124
Horgen	boundary	administrative	8.587789011219026	47.24884149850715	16	0.35	Horgen, Bezirk Horgen, Zürich, Schweiz, Suisse, Svizzera, Svizra	8.53544107424045	47.22154486690374	8.633228044700076	47.27612513816062
Männedorf	boundary	administrative	8.693834610297731	47.25389666622061	16	0.35	Männedorf, Bezirk Meilen, Zürich, Schweiz, Suisse, Svizzera, Svizra	8.669797869150955	47.23461443324606	8.715041873739011	47.273467991035595
Neerach	boundary	administrative	8.472168692960114	47.51085958216361	16	0.35	Neerach, Bezirk Dielsdorf, Zürich, Schweiz, Suisse, Svizzera, Svizra	8.454011136366859	47.49343503038942	8.493739764847703	47.52795321640052
Oberglatt	boundary	administrative	8.52118695755675	47.479993559003276	16	0.35	Oberglatt, Bezirk Dielsdorf, Zürich, Schweiz, Suisse, Svizzera, Svizra	8.49832634226425	47.462627596732254	8.551205757729207	47.49761173274077
Pfäffikon	boundary	administrative	8.781494396725714	47.369749697413795	16	0.35	Pfäffikon, Bezirk Pfäffikon, Zürich, Schweiz, Suisse, Svizzera, Svizra	8.75144347339321	47.33713793336999	8.84167273321836	47.4021647381901
Regensberg	boundary	administrative	8.42680840694717	47.47706810715766	16	0.35	Regensberg, Bezirk Dielsdorf, Zürich, Schweiz, Suisse, Svizzera, Svizra	8.404268145250427	47.4685655883975	8.44690353393281	47.48543869476188
Russikon	boundary	administrative	8.786877480913454	47.402690283519085	16	0.35	Russikon, Bezirk Pfäffikon, Zürich, Schweiz, Suisse, Svizzera, Svizra	8.751591833079374	47.380452591485565	8.81736697421482	47.42498731942707
Rüschlikon	boundary	administrative	8.555026139274332	47.3056589835401	16	0.35	Rüschlikon, Bezirk Horgen, Zürich, Schweiz, Suisse, Svizzera, Svizra	8.530648385824861	47.2934291581672	8.573794232410535	47.3183698463361
Schwerzenbach	boundary	administrative	8.65311690616749	47.38161696356491	16	0.35	Schwerzenbach, Bezirk Uster, Zürich, Schweiz, Suisse, Svizzera, Svizra	8.642340179278051	47.36955804519775	8.670097522189394	47.39380957328775
Schlieren	boundary	administrative	8.445438029179659	47.394567339244134	16	0.35	Schlieren, Bezirk Dietikon, Zürich, Schweiz, Suisse, Svizzera, Svizra	8.425799242846411	47.3802488274194	8.473487326580823	47.40888476142142
Stallikon	boundary	administrative	8.493504624739007	47.32014412759989	16	0.35	Stallikon, Bezirk Affoltern, Zürich, Schweiz, Suisse, Svizzera, Svizra	8.468972246798359	47.28560574120215	8.510097887081145	47.35471998110482
Thalwil	boundary	administrative	8.565816357056367	47.28945337003489	16	0.35	Thalwil, Bezirk Horgen, Zürich, Schweiz, Suisse, Svizzera, Svizra	8.54229738721736	47.27272946154699	8.589660923660915	47.30631222716391
Turbenthal	boundary	administrative	8.875939637743993	47.432559111658875	16	0.35	Turbenthal, Bezirk Winterthur, Zürich, Schweiz, Suisse, Svizzera, Svizra	8.83005893581921	47.40143819482303	8.933086942695157	47.463700396519435
Urdorf	boundary	administrative	8.426794496182143	47.38094884206296	16	0.35	Urdorf, Bezirk Dietikon, Zürich, Schweiz, Suisse, Svizzera, Svizra	8.399560365513992	47.36543582521701	8.448006089476252	47.396478371258176
Wald (ZH)	boundary	administrative	8.915842871072627	47.283847134097286	16	0.35	Wald (ZH), Bezirk Hinwil, Zürich, Schweiz, Suisse, Svizzera, Svizra	8.88507607186952	47.2528132214164	8.974996123286587	47.314905354297416
Wasterkingen	boundary	administrative	8.468465891707599	47.59732050596	16	0.35	Wasterkingen, Bezirk Bülach, Zürich, Schweiz, Suisse, Svizzera, Svizra	8.456534927412406	47.58391725605233	8.487260386056532	47.61066558545968
Wetzikon (ZH)	boundary	administrative	8.806720852245633	47.322495544806685	16	0.35	Wetzikon (ZH), Bezirk Hinwil, Zürich, Schweiz, Suisse, Svizzera, Svizra	8.763569153619159	47.29620532831732	8.84434186646493	47.34883513070574
Wila	boundary	administrative	8.84567901607767	47.41171336037585	16	0.35	Wila, Bezirk Pfäffikon, Zürich, Schweiz, Suisse, Svizzera, Svizra	8.828988482964917	47.39102502123446	8.906116660491788	47.432265996504924
Wildberg	boundary	administrative	8.818013050374411	47.418150326737	16	0.35	Wildberg, Bezirk Pfäffikon, Zürich, Schweiz, Suisse, Svizzera, Svizra	8.802944736338361	47.39576305964134	8.855821972508464	47.44057874897726
Winterthur	boundary	administrative	8.720490789193459	47.4989384203751	16	0.35	Winterthur, Bezirk Winterthur, Zürich, Schweiz, Suisse, Svizzera, Svizra	8.656606178479393	47.44971996875922	8.809929292433822	47.548005243362525
Zell (ZH)	boundary	administrative	8.815793472911785	47.449333269656336	16	0.35	Zell (ZH), Bezirk Winterthur, Zürich, Schweiz, Suisse, Svizzera, Svizra	8.761452387791735	47.430497079659176	8.847641486468206	47.4679755862331
Zollikon	boundary	administrative	8.584562078083039	47.34173964012176	16	0.35	Zollikon, Bezirk Meilen, Zürich, Schweiz, Suisse, Svizzera, Svizra	8.55387162203354	47.329023161450635	8.62697078634298	47.35441714294316
Zürich	place	city	8.528508984538263	47.37744344633679	16	0.35	Zürich, Bezirk Zürich, Zürich, Schweiz, Suisse, Svizzera, Svizra	8.448006089476252	47.3202202352807	8.625441256651868	47.43466615447862
Adelboden	boundary	administrative	7.551320702981645	46.46960932044014	16	0.35	Adelboden, Verwaltungskreis Frutigen-Niedersimmental, Verwaltungsregion Oberland, Bern - Berne, Schweiz, Suisse, Svizzera, Svizra	7.488657373408444	46.412422486843866	7.627838959423685	46.526854324444464
Aefligen	boundary	administrative	7.549616773599939	47.09804054112712	16	0.35	Aefligen, Verwaltungskreis Emmental, Verwaltungsregion Emmental-Oberaargau, Bern - Berne, Schweiz, Suisse, Svizzera, Svizra	7.534565140908826	47.086679374289616	7.5628767790770155	47.10995407538379
Aeschi bei Spiez	boundary	administrative	7.758511350470058	46.62607933612203	16	0.35	Aeschi bei Spiez, Verwaltungskreis Frutigen-Niedersimmental, Verwaltungsregion Oberland, Bern - Berne, Schweiz, Suisse, Svizzera, Svizra	7.669362823926236	46.58429533925452	7.817803144005978	46.66795276789644
Arch	boundary	administrative	7.432274041586608	47.1680458611562	16	0.35	Arch, Verwaltungskreis Seeland, Verwaltungsregion Seeland, Bern - Berne, Schweiz, Suisse, Svizzera, Svizra	7.410208627036583	47.15049625138668	7.454994644435232	47.18529355477343
Beatenberg	boundary	administrative	7.814792323955561	46.719740482382576	16	0.35	Beatenberg, Verwaltungskreis Interlaken-Oberhasli, Verwaltungsregion Oberland, Bern - Berne, Schweiz, Suisse, Svizzera, Svizra	7.747823891695788	46.679359867563356	7.85391104177296	46.76024766393967
Bern	boundary	administrative	7.420692771304872	46.954545879195905	16	0.35	Bern, Verwaltungskreis Bern-Mittelland, Verwaltungsregion Bern-Mittelland, Bern - Berne, Schweiz, Suisse, Svizzera, Svizra	7.294314482608314	46.91903259364004	7.4955562664534625	46.990152622972126
Bettenhausen	boundary	administrative	7.708312040507144	47.16997495617157	16	0.35	Bettenhausen, Verwaltungskreis Oberaargau, Verwaltungsregion Emmental-Oberaargau, Bern - Berne, Schweiz, Suisse, Svizzera, Svizra	7.691882650820587	47.15798975664282	7.725572285702981	47.18239651757956
Bielersee (BE)	boundary	administrative	7.169593954003358	47.084415296513924	16	0.35	Bielersee (BE), Verwaltungsregion Seeland, Bern - Berne, Schweiz, Suisse, Svizzera, Svizra	7.078183421241845	47.03899112291714	7.230963723146772	47.12991649980085
Boltigen	boundary	administrative	7.3622032172176395	46.59751716286796	16	0.35	Boltigen, Verwaltungskreis Obersimmental-Saanen, Verwaltungsregion Oberland, Bern - Berne, Schweiz, Suisse, Svizzera, Svizra	7.279706837033643	46.539173542814716	7.435026520323986	46.655889784306204
Brienz (BE)	boundary	administrative	8.051003881975166	46.73072794206706	16	0.35	Brienz (BE), Verwaltungskreis Interlaken-Oberhasli, Verwaltungsregion Oberland, Bern - Berne, Schweiz, Suisse, Svizzera, Svizra	7.970329138968596	46.67106278924995	8.092491689685176	46.79025093780638
Bremgarten bei Bern	boundary	administrative	7.434169553699837	46.978193952166905	16	0.35	Bremgarten bei Bern, Verwaltungskreis Bern-Mittelland, Verwaltungsregion Bern-Mittelland, Bern - Berne, Schweiz, Suisse, Svizzera, Svizra	7.42306076681058	46.96818256510694	7.449047348857504	46.98815362288431
Buchholterberg	boundary	administrative	7.685568534136911	46.8193666100365	16	0.35	Buchholterberg, Verwaltungskreis Thun, Verwaltungsregion Oberland, Bern - Berne, Schweiz, Suisse, Svizzera, Svizra	7.64243998329485	46.802213925291724	7.7362810890165	46.836613172096804
Brügg	boundary	administrative	7.283392546077659	47.12871331950983	16	0.35	Brügg, Verwaltungskreis Biel/Bienne, Verwaltungsregion Seeland, Bern - Berne, Schweiz, Suisse, Svizzera, Svizra	7.25438728684128	47.11609901623835	7.303380265261752	47.14055254819481
Diemtigen	boundary	administrative	7.517891726702855	46.59152967606451	16	0.35	Diemtigen, Verwaltungskreis Frutigen-Niedersimmental, Verwaltungsregion Oberland, Bern - Berne, Schweiz, Suisse, Svizzera, Svizra	7.433040679824131	46.51463627564552	7.627238647518396	46.668407821419756
Därstetten	boundary	administrative	7.495069139418331	46.66067249825703	16	0.35	Därstetten, Verwaltungskreis Frutigen-Niedersimmental, Verwaltungsregion Oberland, Bern - Berne, Schweiz, Suisse, Svizzera, Svizra	7.446579129829986	46.614189899837	7.537287331602471	46.70724042445134
Eggiwil	boundary	administrative	7.822379247445119	46.86545890513524	16	0.35	Eggiwil, Verwaltungskreis Emmental, Verwaltungsregion Emmental-Oberaargau, Bern - Berne, Schweiz, Suisse, Svizzera, Svizra	7.742618059272758	46.81002552377333	7.870110997493499	46.92086722460665
Eriz	boundary	administrative	7.848005934598863	46.78231541288636	16	0.35	Eriz, Verwaltungskreis Thun, Verwaltungsregion Oberland, Bern - Berne, Schweiz, Suisse, Svizzera, Svizra	7.727618978819891	46.756919629284646	7.86779356890409	46.80772645155188
Erlenbach im Simmental	boundary	administrative	7.539729339818849	46.65611140182613	16	0.35	Erlenbach im Simmental, Verwaltungskreis Frutigen-Niedersimmental, Verwaltungsregion Oberland, Bern - Berne, Schweiz, Suisse, Svizzera, Svizra	7.469912588065398	46.61775782456089	7.616176966081271	46.694412424558486
Evilard	boundary	administrative	7.223442157861899	47.144947934399994	16	0.35	Evilard, Verwaltungskreis Biel/Bienne, Verwaltungsregion Seeland, Bern - Berne, Schweiz, Suisse, Svizzera, Svizra	7.190844162701894	47.13277984174396	7.2494426345211584	47.15721392768506
Frutigen	boundary	administrative	7.60907153204242	46.55901748903044	16	0.35	Frutigen, Verwaltungskreis Frutigen-Niedersimmental, Verwaltungsregion Oberland, Bern - Berne, Schweiz, Suisse, Svizzera, Svizra	7.5386187969215825	46.499300829418324	7.693207745893289	46.61879064266994
Gadmen	boundary	administrative	8.380126127948355	46.703583735372874	18	0.3	Gadmen, Innertkirchen, Verwaltungskreis Interlaken-Oberhasli, Verwaltungsregion Oberland, Bern - Berne, Schweiz, Suisse, Svizzera, Svizra	8.273014163256677	46.632771489525304	8.455157361625849	46.77432205283446
Grindelwald	boundary	administrative	8.040177319779222	46.619910506843425	16	0.35	Grindelwald, Verwaltungskreis Interlaken-Oberhasli, Verwaltungsregion Oberland, Bern - Berne, Schweiz, Suisse, Svizzera, Svizra	7.936686191286867	46.54659077275199	8.143366153911018	46.69287895537288
Grandval	boundary	administrative	7.422177433777852	47.283571788578044	16	0.35	Grandval, Verwaltungskreis Berner Jura, Verwaltungsregion Berner Jura, Bern - Berne, Schweiz, Suisse, Svizzera, Svizra	7.411169528416393	47.25855272961444	7.4457183921931005	47.30854524998836
Gsteigwiler	boundary	administrative	7.890263005810995	46.65016196886309	16	0.35	Gsteigwiler, Verwaltungskreis Interlaken-Oberhasli, Verwaltungsregion Oberland, Bern - Berne, Schweiz, Suisse, Svizzera, Svizra	7.8671527724064845	46.63388049913419	7.9107258445968975	46.66664862758167
Guggisberg	boundary	administrative	7.337110114434493	46.73429993201398	16	0.35	Guggisberg, Verwaltungskreis Bern-Mittelland, Verwaltungsregion Bern-Mittelland, Bern - Berne, Schweiz, Suisse, Svizzera, Svizra	7.290468949251335	46.670853828403814	7.410352292856971	46.7975008649563
Hagneck	boundary	administrative	7.184177316664262	47.053232269775535	16	0.35	Hagneck, Verwaltungskreis Seeland, Verwaltungsregion Seeland, Bern - Berne, Schweiz, Suisse, Svizzera, Svizra	7.1725981844166995	47.042303483413264	7.203487844543986	47.06392518938256
Hasle bei Burgdorf	boundary	administrative	7.645094171688928	47.00326095561667	16	0.35	Hasle bei Burgdorf, Verwaltungskreis Emmental, Verwaltungsregion Emmental-Oberaargau, Bern - Berne, Schweiz, Suisse, Svizzera, Svizra	7.59086646834433	46.97695447823514	7.6893205544775185	47.02968402527132
Hasliberg	boundary	administrative	8.227318379596234	46.742078086701916	16	0.35	Hasliberg, Verwaltungskreis Interlaken-Oberhasli, Verwaltungsregion Oberland, Bern - Berne, Schweiz, Suisse, Svizzera, Svizra	8.142980586365015	46.7139756189274	8.324929156942488	46.77031667658396
Guttannen	boundary	administrative	8.304753356532377	46.608237281750775	16	0.35	Guttannen, Verwaltungskreis Interlaken-Oberhasli, Verwaltungsregion Oberland, Bern - Berne, Schweiz, Suisse, Svizzera, Svizra	8.113026262812866	46.520393385840265	8.372416158819789	46.69597196146292
Gündlischwand	boundary	administrative	7.924380417254261	46.65081085389727	16	0.35	Gündlischwand, Verwaltungskreis Interlaken-Oberhasli, Verwaltungsregion Oberland, Bern - Berne, Schweiz, Suisse, Svizzera, Svizra	7.897733978496974	46.61257026468681	7.98952956456816	46.68902193880856
Habkern	boundary	administrative	7.889577722003377	46.75278429162543	16	0.35	Habkern, Verwaltungskreis Interlaken-Oberhasli, Verwaltungsregion Oberland, Bern - Berne, Schweiz, Suisse, Svizzera, Svizra	7.827982378676977	46.71072872109507	7.954029690057383	46.79567184986482
Heimiswil	boundary	administrative	7.672650320567868	47.05979978427861	16	0.35	Heimiswil, Verwaltungskreis Emmental, Verwaltungsregion Emmental-Oberaargau, Bern - Berne, Schweiz, Suisse, Svizzera, Svizra	7.638572154075433	47.02703073382176	7.7238428476212	47.09205083311933
Horrenbach-Buchen	boundary	administrative	7.801602028705341	46.76865777221738	16	0.35	Horrenbach-Buchen, Verwaltungskreis Thun, Verwaltungsregion Oberland, Bern - Berne, Schweiz, Suisse, Svizzera, Svizra	7.694082397489439	46.74959753394839	7.843170722503516	46.789945165978615
Inkwil	boundary	administrative	7.662723056229329	47.20219230976156	16	0.35	Inkwil, Verwaltungskreis Oberaargau, Verwaltungsregion Emmental-Oberaargau, Bern - Berne, Schweiz, Suisse, Svizzera, Svizra	7.647225798549839	47.19089895252073	7.6832719216904195	47.21284897763734
Innertkirchen	boundary	administrative	8.237649225026557	46.68663892182682	18	0.3	Innertkirchen, Innertkirchen, Verwaltungskreis Interlaken-Oberhasli, Verwaltungsregion Oberland, Bern - Berne, Schweiz, Suisse, Svizzera, Svizra	8.124744079630403	46.58505054873042	8.39638647405829	46.78828177729383
Ipsach	boundary	administrative	7.232481317652513	47.11516921171929	16	0.35	Ipsach, Verwaltungskreis Biel/Bienne, Verwaltungsregion Seeland, Bern - Berne, Schweiz, Suisse, Svizzera, Svizra	7.219039460054063	47.10704656081093	7.24407704302365	47.12373786369553
Kandersteg	boundary	administrative	7.714661154250073	46.46565205631386	16	0.35	Kandersteg, Verwaltungskreis Frutigen-Niedersimmental, Verwaltungsregion Oberland, Bern - Berne, Schweiz, Suisse, Svizzera, Svizra	7.583230135458109	46.41140936620726	7.84341153458169	46.52013874362183
Kirchdorf (BE)	boundary	administrative	7.542066162866048	46.817630843617835	16	0.35	Kirchdorf (BE), Verwaltungskreis Bern-Mittelland, Verwaltungsregion Bern-Mittelland, Bern - Berne, Schweiz, Suisse, Svizzera, Svizra	7.522855873632494	46.80262656638497	7.566345629705382	46.8329561477422
Köniz	boundary	administrative	7.398883589159375	46.89846302606658	16	0.35	Köniz, Verwaltungskreis Bern-Mittelland, Verwaltungsregion Bern-Mittelland, Bern - Berne, Schweiz, Suisse, Svizzera, Svizra	7.331226791622869	46.86010538357829	7.471253776392187	46.93681823780294
La Ferrière	boundary	administrative	6.899675505039538	47.14798964324263	16	0.35	La Ferrière, Verwaltungskreis Berner Jura, Verwaltungsregion Berner Jura, Bern - Berne, Schweiz, Suisse, Svizzera, Svizra	6.8614831448308555	47.12074342878679	6.934025750769593	47.17410178619904
Langenthal	boundary	administrative	7.805921039265103	47.21558009505789	16	0.35	Langenthal, Verwaltungskreis Oberaargau, Verwaltungsregion Emmental-Oberaargau, Bern - Berne, Schweiz, Suisse, Svizzera, Svizra	7.761778587013224	47.19372365389021	7.856280270523997	47.23741776076241
Langnau im Emmental	boundary	administrative	7.8044511725046135	46.95464612675785	16	0.35	Langnau im Emmental, Verwaltungskreis Emmental, Verwaltungsregion Emmental-Oberaargau, Bern - Berne, Schweiz, Suisse, Svizzera, Svizra	7.750756719616192	46.906750926196025	7.8702744446054	47.00257804005559
Lauterbrunnen	boundary	administrative	7.904188543637359	46.55326335441133	16	0.35	Lauterbrunnen, Verwaltungskreis Interlaken-Oberhasli, Verwaltungsregion Oberland, Bern - Berne, Schweiz, Suisse, Svizzera, Svizra	7.806166044915982	46.47715458394838	8.007001390276258	46.629321833455194
Lauperswil	boundary	administrative	7.751213454186869	46.963672304918816	16	0.35	Lauperswil, Verwaltungskreis Emmental, Verwaltungsregion Emmental-Oberaargau, Bern - Berne, Schweiz, Suisse, Svizzera, Svizra	7.697447228699418	46.932278599044196	7.7983914944464345	46.99483793920807
Lengnau (BE)	boundary	administrative	7.368082235961111	47.184215851572894	16	0.35	Lengnau (BE), Verwaltungskreis Biel/Bienne, Verwaltungsregion Seeland, Bern - Berne, Schweiz, Suisse, Svizzera, Svizra	7.33812342155403	47.16142424146816	7.391910932408791	47.20721935618987
Lenk	boundary	administrative	7.452834259496695	46.43093396191206	16	0.35	Lenk, Verwaltungskreis Obersimmental-Saanen, Verwaltungsregion Oberland, Bern - Berne, Schweiz, Suisse, Svizzera, Svizra	7.373656488401395	46.365283333948256	7.555269866670924	46.49639976891092
Lohnstorf	boundary	administrative	7.510879826505796	46.806662201305926	16	0.35	Lohnstorf, Verwaltungskreis Bern-Mittelland, Verwaltungsregion Bern-Mittelland, Bern - Berne, Schweiz, Suisse, Svizzera, Svizra	7.495896320265217	46.80169768387529	7.526964263473018	46.81147953251684
Lützelflüh	boundary	administrative	7.6940882802985	47.01543935801358	16	0.35	Lützelflüh, Verwaltungskreis Emmental, Verwaltungsregion Emmental-Oberaargau, Bern - Berne, Schweiz, Suisse, Svizzera, Svizra	7.583102730529873	46.96007852202366	7.764217888474776	47.046211629586935
Madiswil	boundary	administrative	7.8018115277586695	47.158459520406176	16	0.35	Madiswil, Verwaltungskreis Oberaargau, Verwaltungsregion Emmental-Oberaargau, Bern - Berne, Schweiz, Suisse, Svizzera, Svizra	7.746175841893802	47.12956244821081	7.846079829637944	47.18726816352305
Moosseedorf	boundary	administrative	7.487153296226356	47.01107657741176	16	0.35	Moosseedorf, Verwaltungskreis Bern-Mittelland, Verwaltungsregion Bern-Mittelland, Bern - Berne, Schweiz, Suisse, Svizzera, Svizra	7.461105973858081	46.99637652135462	7.510207078829494	47.0258714327938
Münchenwiler	boundary	administrative	7.125534645296014	46.909721724137825	16	0.35	Münchenwiler, Verwaltungskreis Bern-Mittelland, Verwaltungsregion Bern-Mittelland, Bern - Berne, Schweiz, Suisse, Svizzera, Svizra	7.113233271371257	46.900195439724044	7.138443940641394	46.919395278590386
Müntschemier	boundary	administrative	7.144677665525098	46.99573769460424	16	0.35	Müntschemier, Verwaltungskreis Seeland, Verwaltungsregion Seeland, Bern - Berne, Schweiz, Suisse, Svizzera, Svizra	7.127478986366896	46.98352052590512	7.171116180116571	47.00761908426221
Nidau	boundary	administrative	7.238427827194664	47.12391593722846	16	0.35	Nidau, Verwaltungskreis Biel/Bienne, Verwaltungsregion Seeland, Bern - Berne, Schweiz, Suisse, Svizzera, Svizra	7.2266383258331075	47.11725035445825	7.253224130137882	47.13072133014357
Oberburg	boundary	administrative	7.608855118551073	47.02120044961231	16	0.35	Oberburg, Verwaltungskreis Emmental, Verwaltungsregion Emmental-Oberaargau, Bern - Berne, Schweiz, Suisse, Svizzera, Svizra	7.575176719069958	46.98375387808947	7.640092798949154	47.0550007256166
Oberhünigen	boundary	administrative	7.667947856526009	46.8712573381126	16	0.35	Oberhünigen, Verwaltungskreis Bern-Mittelland, Verwaltungsregion Bern-Mittelland, Bern - Berne, Schweiz, Suisse, Svizzera, Svizra	7.6483033760218015	46.8551816860161	7.689236232531612	46.887266437897885
Oberwil bei Büren	boundary	administrative	7.4100786933141105	47.1321037993435	16	0.35	Oberwil bei Büren, Verwaltungskreis Seeland, Verwaltungsregion Seeland, Bern - Berne, Schweiz, Suisse, Svizzera, Svizra	7.386742650911998	47.11767598750143	7.440178792385723	47.146515098836346
Oberwil im Simmental	boundary	administrative	7.437637346546037	46.6505428425433	16	0.35	Oberwil im Simmental, Verwaltungskreis Frutigen-Niedersimmental, Verwaltungsregion Oberland, Bern - Berne, Schweiz, Suisse, Svizzera, Svizra	7.369332180735143	46.59794996243834	7.477583789668813	46.70298577040048
Pohlern	boundary	administrative	7.523596235436035	46.71769714202691	16	0.35	Pohlern, Verwaltungskreis Thun, Verwaltungsregion Oberland, Bern - Berne, Schweiz, Suisse, Svizzera, Svizra	7.489385844613253	46.70107033788727	7.547729338937984	46.7346259461379
Reichenbach im Kandertal	boundary	administrative	7.758726700059816	46.571089147890426	16	0.35	Reichenbach im Kandertal, Verwaltungskreis Frutigen-Niedersimmental, Verwaltungsregion Oberland, Bern - Berne, Schweiz, Suisse, Svizzera, Svizra	7.611027040952423	46.49520476097545	7.827280897200382	46.646800867600035
Riggisberg	boundary	administrative	7.460366888812771	46.772607618359345	16	0.35	Riggisberg, Verwaltungskreis Bern-Mittelland, Verwaltungsregion Bern-Mittelland, Bern - Berne, Schweiz, Suisse, Svizzera, Svizra	7.426017734612144	46.72653774485159	7.499901445058613	46.81832654158122
Röthenbach im Emmental	boundary	administrative	7.749856535402202	46.84525495617821	16	0.35	Röthenbach im Emmental, Verwaltungskreis Emmental, Verwaltungsregion Emmental-Oberaargau, Bern - Berne, Schweiz, Suisse, Svizzera, Svizra	7.708468174087101	46.80102654488817	7.825393963157979	46.88959015291472
Rüdtligen-Alchenflüh	boundary	administrative	7.569656938878317	47.08443155740607	16	0.35	Rüdtligen-Alchenflüh, Verwaltungskreis Emmental, Verwaltungsregion Emmental-Oberaargau, Bern - Berne, Schweiz, Suisse, Svizzera, Svizra	7.553700522939749	47.072917630383216	7.584820433947216	47.09588412889767
Rüegsau	boundary	administrative	7.692989074969606	47.04003927990897	16	0.35	Rüegsau, Verwaltungskreis Emmental, Verwaltungsregion Emmental-Oberaargau, Bern - Berne, Schweiz, Suisse, Svizzera, Svizra	7.645975889148587	47.012870262781384	7.733104431532751	47.06712405890968
Rüderswil	boundary	administrative	7.72777661201791	46.97680997422442	16	0.35	Rüderswil, Verwaltungskreis Emmental, Verwaltungsregion Emmental-Oberaargau, Bern - Berne, Schweiz, Suisse, Svizzera, Svizra	7.683848848085859	46.955810037832535	7.77774334653074	46.997953827893795
Rüeggisberg	boundary	administrative	7.43713240102899	46.818863486298525	16	0.35	Rüeggisberg, Verwaltungskreis Bern-Mittelland, Verwaltungsregion Bern-Mittelland, Bern - Berne, Schweiz, Suisse, Svizzera, Svizra	7.373399834526197	46.70405915692087	7.482626258798973	46.85395415629637
Rüschegg	boundary	administrative	7.4073490100711314	46.74850939527839	16	0.35	Rüschegg, Verwaltungskreis Bern-Mittelland, Verwaltungsregion Bern-Mittelland, Bern - Berne, Schweiz, Suisse, Svizzera, Svizra	7.356193547510658	46.68627183637731	7.45241343735293	46.81078475656277
Rütschelen	boundary	administrative	7.770337914969167	47.17102424472036	16	0.35	Rütschelen, Verwaltungskreis Oberaargau, Verwaltungsregion Emmental-Oberaargau, Bern - Berne, Schweiz, Suisse, Svizzera, Svizra	7.755291077775952	47.15654027412702	7.7873353450654	47.185598991325094
Saanen	boundary	administrative	7.287467248183144	46.50016010022212	16	0.35	Saanen, Verwaltungskreis Obersimmental-Saanen, Verwaltungsregion Oberland, Bern - Berne, Schweiz, Suisse, Svizzera, Svizra	7.192547449245779	46.4161564570696	7.38772593197328	46.58411076974661
Scheuren	boundary	administrative	7.329545187274194	47.131629006438246	16	0.35	Scheuren, Verwaltungskreis Biel/Bienne, Verwaltungsregion Seeland, Bern - Berne, Schweiz, Suisse, Svizzera, Svizra	7.312149663818986	47.12358028391585	7.3428117552751075	47.139410430068416
Schwarzenburg	boundary	administrative	7.361120511795281	46.82422538975861	16	0.35	Schwarzenburg, Verwaltungskreis Bern-Mittelland, Verwaltungsregion Bern-Mittelland, Bern - Berne, Schweiz, Suisse, Svizzera, Svizra	7.301592740590963	46.783822772443585	7.403749448632027	46.8648911988333
Schwarzhäusern	boundary	administrative	7.7718398428000075	47.2566535160839	16	0.35	Schwarzhäusern, Verwaltungskreis Oberaargau, Verwaltungsregion Emmental-Oberaargau, Bern - Berne, Schweiz, Suisse, Svizzera, Svizra	7.745555329601871	47.245531526853455	7.786146875014424	47.26786896353474
Signau	boundary	administrative	7.736265155363679	46.91656118948933	16	0.35	Signau, Verwaltungskreis Emmental, Verwaltungsregion Emmental-Oberaargau, Bern - Berne, Schweiz, Suisse, Svizzera, Svizra	7.697577064379574	46.882628730871986	7.7684049843860805	46.950620382482654
Sigriswil	boundary	administrative	7.742781291270953	46.7272294195015	16	0.35	Sigriswil, Verwaltungskreis Thun, Verwaltungsregion Oberland, Bern - Berne, Schweiz, Suisse, Svizzera, Svizra	7.683988658230788	46.679317538952304	7.810037394534732	46.77491859288333
Sonceboz-Sombeval	boundary	administrative	7.178572324689757	47.191844305470156	16	0.35	Sonceboz-Sombeval, Verwaltungskreis Berner Jura, Verwaltungsregion Berner Jura, Bern - Berne, Schweiz, Suisse, Svizzera, Svizra	7.153701518988129	47.166177534938825	7.207428344863899	47.21592756685394
St. Stephan	boundary	administrative	7.3976312883877045	46.49248093581068	16	0.35	St. Stephan, Verwaltungskreis Obersimmental-Saanen, Verwaltungsregion Oberland, Bern - Berne, Schweiz, Suisse, Svizzera, Svizra	7.354243916832502	46.44907043063231	7.524952019978144	46.53611766855569
Studen (BE)	boundary	administrative	7.306178452739929	47.11344216247993	16	0.35	Studen (BE), Verwaltungskreis Seeland, Verwaltungsregion Seeland, Bern - Berne, Schweiz, Suisse, Svizzera, Svizra	7.282375048270866	47.10495577888335	7.322215575159079	47.12222099067822
Sumiswald	boundary	administrative	7.806887044268079	47.0307491137076	16	0.35	Sumiswald, Verwaltungskreis Emmental, Verwaltungsregion Emmental-Oberaargau, Bern - Berne, Schweiz, Suisse, Svizzera, Svizra	7.722062950482297	46.99713919072436	7.901824766340809	47.06439457596027
Treiten	boundary	administrative	7.1633230136287285	47.00602581019748	16	0.35	Treiten, Verwaltungskreis Seeland, Verwaltungsregion Seeland, Bern - Berne, Schweiz, Suisse, Svizzera, Svizra	7.1473690749595855	46.991370932598414	7.179254337545814	47.02087908744466
Trub	boundary	administrative	7.8833072270395785	46.94798297473959	16	0.35	Trub, Verwaltungskreis Emmental, Verwaltungsregion Emmental-Oberaargau, Bern - Berne, Schweiz, Suisse, Svizzera, Svizra	7.837484774666735	46.88529425990019	7.9562035366454325	47.01055601931516
Tschugg	boundary	administrative	7.077585133863677	47.02352328452929	16	0.35	Tschugg, Verwaltungskreis Seeland, Verwaltungsregion Seeland, Bern - Berne, Schweiz, Suisse, Svizzera, Svizra	7.0514790968262	47.01304804294768	7.094417323670257	47.03401579283142
Vechigen	boundary	administrative	7.580284218063975	46.96545861421363	16	0.35	Vechigen, Verwaltungskreis Bern-Mittelland, Verwaltungsregion Bern-Mittelland, Bern - Berne, Schweiz, Suisse, Svizzera, Svizra	7.512689798549474	46.93513456491249	7.618211253981486	46.995810491433296
Walliswil bei Niederbipp	boundary	administrative	7.695507310418255	47.234905411014736	16	0.35	Walliswil bei Niederbipp, Verwaltungskreis Oberaargau, Verwaltungsregion Emmental-Oberaargau, Bern - Berne, Schweiz, Suisse, Svizzera, Svizra	7.679762251193609	47.22781947580038	7.715580135110798	47.24187592742235
Wangenried	boundary	administrative	7.661471487047196	47.21819935598055	16	0.35	Wangenried, Verwaltungskreis Oberaargau, Verwaltungsregion Emmental-Oberaargau, Bern - Berne, Schweiz, Suisse, Svizzera, Svizra	7.640365881354568	47.20989804480607	7.676851970592737	47.22630025585019
Wiggiswil	boundary	administrative	7.469132161077216	47.030582397653475	16	0.35	Wiggiswil, Verwaltungskreis Bern-Mittelland, Verwaltungsregion Bern-Mittelland, Bern - Berne, Schweiz, Suisse, Svizzera, Svizra	7.459693874630433	47.02397779322889	7.4831676459249366	47.03739755548579
Wiler bei Utzenstorf	boundary	administrative	7.55726521104633	47.15320343847363	16	0.35	Wiler bei Utzenstorf, Verwaltungskreis Emmental, Verwaltungsregion Emmental-Oberaargau, Bern - Berne, Schweiz, Suisse, Svizzera, Svizra	7.5430049630332405	47.1407055179277	7.573016618803109	47.1646048384464
Worben	boundary	administrative	7.296464789759762	47.100431018002695	16	0.35	Worben, Verwaltungskreis Seeland, Verwaltungsregion Seeland, Bern - Berne, Schweiz, Suisse, Svizzera, Svizra	7.279114236479274	47.091527969999376	7.31285634207552	47.109116890894825
Wynigen	boundary	administrative	7.690852182133806	47.10516168033481	16	0.35	Wynigen, Verwaltungskreis Emmental, Verwaltungsregion Emmental-Oberaargau, Bern - Berne, Schweiz, Suisse, Svizzera, Svizra	7.634702564656351	47.074754692101756	7.7428846876127295	47.13555542516085
Zweisimmen	boundary	administrative	7.3840245810994265	46.54480157170056	16	0.35	Zweisimmen, Verwaltungskreis Obersimmental-Saanen, Verwaltungsregion Oberland, Bern - Berne, Schweiz, Suisse, Svizzera, Svizra	7.276291630585575	46.49067895235694	7.462046088118001	46.598928549633854
Aesch (LU)	boundary	administrative	8.2359002578624	47.25914470152608	16	0.35	Aesch (LU), Luzern, Schweiz, Suisse, Svizzera, Svizra	8.222479333747458	47.24459174786961	8.264697974204068	47.274006193038396
Beromünster	boundary	administrative	8.185524969529146	47.20750538863566	16	0.35	Beromünster, Luzern, Schweiz, Suisse, Svizzera, Svizra	8.133112068844667	47.15664555083087	8.235373550675376	47.25874878232968
Egolzwil	boundary	administrative	7.997608108147503	47.184333701131536	16	0.35	Egolzwil, Luzern, Schweiz, Suisse, Svizzera, Svizra	7.9761876701917345	47.1730150724526	8.019397554517639	47.195617125817094
Entlebuch	boundary	administrative	8.132503944925858	46.963992367891485	16	0.35	Entlebuch, Luzern, Schweiz, Suisse, Svizzera, Svizra	8.00972332951284	46.89276521783682	8.164841176574782	47.0351784466206
Flühli	boundary	administrative	8.012230919034597	46.84704612697688	16	0.35	Flühli, Luzern, Schweiz, Suisse, Svizzera, Svizra	7.947856921284285	46.77499025815547	8.071591246483962	46.91932294276596
Greppen	boundary	administrative	8.43019850577548	47.05603647739177	16	0.35	Greppen, Luzern, Schweiz, Suisse, Svizzera, Svizra	8.400470724017651	47.04710866086459	8.461832625494196	47.06551247038651
Hasle (LU)	boundary	administrative	8.088488219916261	46.947540745528144	16	0.35	Hasle (LU), Luzern, Schweiz, Suisse, Svizzera, Svizra	8.016859849512826	46.89572998080834	8.135407536847765	46.99943641892712
Hergiswil bei Willisau	boundary	administrative	7.957470266758454	47.05294640496781	16	0.35	Hergiswil bei Willisau, Luzern, Schweiz, Suisse, Svizzera, Svizra	7.923919966020378	47.00533132761004	7.989050538801791	47.1004362566922
Hitzkirch	boundary	administrative	8.27571126694413	47.22021654479829	16	0.35	Hitzkirch, Luzern, Schweiz, Suisse, Svizzera, Svizra	8.216839067282963	47.18469877492425	8.318556144502566	47.255482270843956
Honau	boundary	administrative	8.408099701652617	47.13237981541501	16	0.35	Honau, Luzern, Schweiz, Suisse, Svizzera, Svizra	8.399522646949691	47.124415372929036	8.416759024997646	47.14056679743021
Luthern	boundary	administrative	7.898115820499761	47.05479905702626	16	0.35	Luthern, Luzern, Schweiz, Suisse, Svizzera, Svizra	7.8660155996029175	47.00419272988296	7.94381458084078	47.1052250894323
Luzern	boundary	administrative	8.300949621456928	47.054870009836606	16	0.35	Luzern, Luzern, Schweiz, Suisse, Svizzera, Svizra	8.206509964183198	46.99800629860768	8.427974933453157	47.083522665735444
Meggen	boundary	administrative	8.374762923707124	47.04367220629196	16	0.35	Meggen, Luzern, Schweiz, Suisse, Svizzera, Svizra	8.343532120483843	47.019955066438776	8.411744635243139	47.06808554702272
Menznau	boundary	administrative	8.037026998538888	47.066548012614106	16	0.35	Menznau, Luzern, Schweiz, Suisse, Svizzera, Svizra	7.966055877092687	47.02547237038374	8.083865789310265	47.10751351663674
Pfaffnau	boundary	administrative	7.901979926136503	47.221179122558766	16	0.35	Pfaffnau, Luzern, Schweiz, Suisse, Svizzera, Svizra	7.836413064526965	47.19817561794177	7.925689721056443	47.2439464251443
Romoos	boundary	administrative	7.995059434482683	47.00303929618724	16	0.35	Romoos, Luzern, Schweiz, Suisse, Svizzera, Svizra	7.948241399182847	46.96971142424582	8.058019771779584	47.03649691998982
Ruswil	boundary	administrative	8.136053149309213	47.07951913350365	16	0.35	Ruswil, Luzern, Schweiz, Suisse, Svizzera, Svizra	8.08046449682149	47.043415342869224	8.196179436159923	47.115129481498265
Schüpfheim	boundary	administrative	8.006183456104228	46.94504767415775	16	0.35	Schüpfheim, Luzern, Schweiz, Suisse, Svizzera, Svizra	7.9468257795558666	46.909571185156786	8.07053453995087	46.980445037992716
Udligenswil	boundary	administrative	8.396231608939111	47.09096994479561	16	0.35	Udligenswil, Luzern, Schweiz, Suisse, Svizzera, Svizra	8.377385621573296	47.07067865640751	8.42057161747516	47.11118403585547
Vitznau	boundary	administrative	8.489983307309583	47.01901968795415	16	0.35	Vitznau, Luzern, Schweiz, Suisse, Svizzera, Svizra	8.458465195894235	46.99554872459719	8.514053642464859	47.043134465293875
Willisau	boundary	administrative	8.000863814093174	47.09139293753924	16	0.35	Willisau, Luzern, Schweiz, Suisse, Svizzera, Svizra	7.920878760091938	47.04378146439984	8.038473592674109	47.139102646583865
Alpnach	boundary	administrative	8.229388704912985	46.95004647357237	16	0.35	Alpnach, Obwalden, Schweiz, Suisse, Svizzera, Svizra	8.150001268463171	46.91979995687558	8.310966582636041	46.98036448790321
Andermatt	boundary	administrative	8.626222765725831	46.62059639798012	16	0.35	Andermatt, Uri, Schweiz, Suisse, Svizzera, Svizra	8.546542318260549	46.56409872446275	8.681921537720145	46.677056436752245
Arth	boundary	administrative	8.528526982682674	47.05826216605094	16	0.35	Arth, Schwyz, Schwyz, Schweiz, Suisse, Svizzera, Svizra	8.464859666006276	47.02168944984347	8.580121479659141	47.09489187920002
Attinghausen	boundary	administrative	8.515721201079405	46.82525636384895	16	0.35	Attinghausen, Uri, Schweiz, Suisse, Svizzera, Svizra	8.464264299423862	46.772530085755	8.63501531791377	46.87799127530317
Buochs	boundary	administrative	8.423024837148983	46.964021201638396	16	0.35	Buochs, Nidwalden, Schweiz, Suisse, Svizzera, Svizra	8.386965717805452	46.94495094699512	8.450946042014381	46.984012292164316
Bürglen (UR)	boundary	administrative	8.688761994679389	46.894338668700534	16	0.35	Bürglen (UR), Uri, Schweiz, Suisse, Svizzera, Svizra	8.63262488294771	46.84730093683337	8.830070586664618	46.94145544191467
Einsiedeln	boundary	administrative	8.77682122083098	47.1205218112669	16	0.35	Einsiedeln, Einsiedeln, Schwyz, Schweiz, Suisse, Svizzera, Svizra	8.68420133156431	47.063272993496646	8.886606188293825	47.17828226040686
Engelberg	boundary	administrative	8.429417802267126	46.81912831252929	16	0.35	Engelberg, Obwalden, Schweiz, Suisse, Svizzera, Svizra	8.361304688877796	46.76342314795697	8.506878062796062	46.874590318090526
Ennetbürgen	boundary	administrative	8.421868769615028	46.99408524430309	16	0.35	Ennetbürgen, Nidwalden, Schweiz, Suisse, Svizzera, Svizra	8.374097987691556	46.97243956609069	8.469058999496212	47.01720881968306
Erstfeld	boundary	administrative	8.600908996082032	46.81278291846032	16	0.35	Erstfeld, Uri, Schweiz, Suisse, Svizzera, Svizra	8.517504723458472	46.77636908122749	8.683019567035899	46.84932147841239
Giswil	boundary	administrative	8.120247498639213	46.83635815269274	16	0.35	Giswil, Obwalden, Schweiz, Suisse, Svizzera, Svizra	8.042195828235407	46.78593819716648	8.215990231948583	46.887037360484165
Innerthal	boundary	administrative	8.922165332649751	47.06936420635184	16	0.35	Innerthal, March, Schwyz, Schweiz, Suisse, Svizzera, Svizra	8.867424119062207	47.02002488769224	8.975983762937519	47.11880142564052
Isenthal	boundary	administrative	8.525639478622782	46.88435163106931	16	0.35	Isenthal, Uri, Schweiz, Suisse, Svizzera, Svizra	8.458298396021092	46.84025142098832	8.607842528929723	46.927967450965916
Kerns	boundary	administrative	8.311229971680017	46.84353092442399	16	0.35	Kerns, Obwalden, Schweiz, Suisse, Svizzera, Svizra	8.232323627567638	46.753171828918695	8.369236986765088	46.93388725390123
Muotathal	boundary	administrative	8.829180462837698	46.95613525567566	16	0.35	Muotathal, Schwyz, Schwyz, Schweiz, Suisse, Svizzera, Svizra	8.667286399503071	46.88529392462408	8.971639087246558	47.02694096363874
Realp	boundary	administrative	8.465853787591264	46.577431105379084	16	0.35	Realp, Uri, Schweiz, Suisse, Svizzera, Svizra	8.406140746238407	46.527630572497365	8.539254924003442	46.62726558496868
Rothenthurm	boundary	administrative	8.679866198558326	47.0961738912904	16	0.35	Rothenthurm, Schwyz, Schwyz, Schweiz, Suisse, Svizzera, Svizra	8.649317275479689	47.055624255393695	8.712122959777872	47.13667952219544
Sachseln	boundary	administrative	8.24325064682063	46.8353063076635	16	0.35	Sachseln, Obwalden, Schweiz, Suisse, Svizzera, Svizra	8.186440670500673	46.78104735666475	8.297086234799735	46.8894818587257
Sarnen	boundary	administrative	8.18690715494116	46.89418469313925	16	0.35	Sarnen, Obwalden, Schweiz, Suisse, Svizzera, Svizra	8.066996873897466	46.8542202817221	8.277663018213815	46.93346287814354
Schübelbach	boundary	administrative	8.921851982364373	47.14975772189803	16	0.35	Schübelbach, March, Schwyz, Schweiz, Suisse, Svizzera, Svizra	8.891195196462293	47.110661591830635	8.973684355439929	47.18877196077141
Schwyz	boundary	administrative	8.656328050125389	47.02575681026795	16	0.35	Schwyz, Schwyz, Schwyz, Schweiz, Suisse, Svizzera, Svizra	8.603220998976951	46.985083834666014	8.778894876838708	47.066416458643786
Seelisberg	boundary	administrative	8.579916298209444	46.95787579977916	16	0.35	Seelisberg, Uri, Schweiz, Suisse, Svizzera, Svizra	8.543572442328127	46.92260244620163	8.60439396250706	46.99340907617409
Silenen	boundary	administrative	8.750288886107256	46.77054696937366	16	0.35	Silenen, Uri, Schweiz, Suisse, Svizzera, Svizra	8.644584936766961	46.69896203778202	8.881634965340652	46.84297302494873
Spiringen	boundary	administrative	8.907907068523068	46.88046812769096	16	0.35	Spiringen, Uri, Schweiz, Suisse, Svizzera, Svizra	8.69788009462931	46.84047404433658	8.95780073274517	46.91987195742383
Unterschächen	boundary	administrative	8.805202394567676	46.86443861797144	16	0.35	Unterschächen, Uri, Schweiz, Suisse, Svizzera, Svizra	8.704821651561474	46.806815590133965	8.859344970231318	46.92241519448474
Unteriberg	boundary	administrative	8.838349003365582	47.04119443189486	16	0.35	Unteriberg, Schwyz, Schwyz, Schweiz, Suisse, Svizzera, Svizra	8.761443838250502	47.00269018992005	8.888898387354686	47.07998558641526
Wassen	boundary	administrative	8.517509816443896	46.72840544242625	16	0.35	Wassen, Uri, Schweiz, Suisse, Svizzera, Svizra	8.439034770871585	46.67616619481617	8.638060044241541	46.780560116633296
Baar	boundary	administrative	8.532408537222063	47.18703225485824	16	0.35	Baar, Zug, Schweiz, Suisse, Svizzera, Svizra	8.496022576177012	47.15086748587823	8.577749652518122	47.22323725697349
Wolfenschiessen	boundary	administrative	8.350289190029105	46.85118661950655	16	0.35	Wolfenschiessen, Nidwalden, Schweiz, Suisse, Svizzera, Svizra	8.322001358163988	46.77151662984229	8.479090628852333	46.93091008571303
Glarus Süd	boundary	administrative	9.092778155424755	46.91850914378687	16	0.35	Glarus Süd, Glarus, Schweiz, Suisse, Svizzera, Svizra	8.871228329636551	46.796470980513405	9.252577179931933	47.03995856218141
Glarus	boundary	administrative	8.977764849059472	47.02456934604534	16	0.35	Glarus, Glarus, Schweiz, Suisse, Svizzera, Svizra	8.892982469675983	46.967132564096396	9.134099062393348	47.082066729154185
Glarus Nord	boundary	administrative	9.079663442530695	47.10666857888734	16	0.35	Glarus Nord, Glarus, Schweiz, Suisse, Svizzera, Svizra	8.94806389492365	47.03913512401364	9.19202362919745	47.173990055429755
Menzingen	boundary	administrative	8.591975509125565	47.176654830086676	16	0.35	Menzingen, Zug, Schweiz, Suisse, Svizzera, Svizra	8.554398759924112	47.14806357162859	8.665773382161236	47.20524206523124
Oberägeri	boundary	administrative	8.643425289090242	47.1277077844956	16	0.35	Oberägeri, Zug, Schweiz, Suisse, Svizzera, Svizra	8.594513794141276	47.09199727275806	8.701158592236595	47.16348233397337
Unterägeri	boundary	administrative	8.574066219539743	47.118739315738	16	0.35	Unterägeri, Zug, Schweiz, Suisse, Svizzera, Svizra	8.541666229908401	47.08395433374888	8.621560854577694	47.153438047943474
Alterswil	boundary	administrative	7.2825546594790325	46.790213596427755	16	0.35	Alterswil, Sensebezirk, Fribourg - Freiburg, Schweiz, Suisse, Svizzera, Svizra	7.215073897843638	46.763791784058554	7.304660936247642	46.81662845181732
Arconciel	boundary	administrative	7.1147955673608845	46.75403327901732	16	0.35	Arconciel, District de la Sarine, Fribourg - Freiburg, Schweiz, Suisse, Svizzera, Svizra	7.095724397651111	46.737041526813506	7.138939227299915	46.77050099463474
Bulle	boundary	administrative	7.066925093801633	46.60509775609809	16	0.35	Bulle, District de la Gruyère, Fribourg - Freiburg, Schweiz, Suisse, Svizzera, Svizra	6.993393597481144	46.56952173199698	7.095269176489779	46.64054369306198
Bussy (FR)	boundary	administrative	6.893654276195621	46.835718236294966	16	0.35	Bussy (FR), District de la Broye, Fribourg - Freiburg, Schweiz, Suisse, Svizzera, Svizra	6.8778563544900075	46.82378701622263	6.907667682774018	46.84712583887607
Châtel-Saint-Denis	boundary	administrative	6.948942359295644	46.51992571755268	16	0.35	Châtel-Saint-Denis, District de la Veveyse, Fribourg - Freiburg, Schweiz, Suisse, Svizzera, Svizra	6.883223454730085	46.47538784639749	7.005028684914379	46.564373818524885
Estavayer-le-Lac	boundary	administrative	6.8456064760247575	46.842990836493	16	0.35	Estavayer-le-Lac, District de la Broye, Fribourg - Freiburg, Schweiz, Suisse, Svizzera, Svizra	6.807632266788119	46.82046686055659	6.878744417131259	46.8653296561883
Givisiez	boundary	administrative	7.125905200829065	46.81314556150113	16	0.35	Givisiez, District de la Sarine, Fribourg - Freiburg, Schweiz, Suisse, Svizzera, Svizra	7.1121612259553615	46.801683434639884	7.138909387724596	46.82413779887044
Greng	boundary	administrative	7.086724717695181	46.91873612572479	16	0.35	Greng, Seebezirk / District du Lac, Fribourg - Freiburg, Schweiz, Suisse, Svizzera, Svizra	7.072175692142225	46.907698751806876	7.099413776151976	46.930504233961386
Grolley	boundary	administrative	7.0672572260446636	46.835567236309295	16	0.35	Grolley, District de la Sarine, Fribourg - Freiburg, Schweiz, Suisse, Svizzera, Svizra	7.046870558823315	46.82022705430679	7.085419853527669	46.85078177358326
Gruyères	boundary	administrative	7.048423296252603	46.572259513030545	16	0.35	Gruyères, District de la Gruyère, Fribourg - Freiburg, Schweiz, Suisse, Svizzera, Svizra	6.981782733748105	46.54063434089979	7.161890470750592	46.603847720968325
Kleinbösingen	boundary	administrative	7.201575995155221	46.891794677268365	16	0.35	Kleinbösingen, Seebezirk / District du Lac, Fribourg - Freiburg, Schweiz, Suisse, Svizzera, Svizra	7.19005726963195	46.88039889317072	7.217549157669792	46.90263666902331
Kerzers	boundary	administrative	7.200926659839617	46.980309125432754	16	0.35	Kerzers, Seebezirk / District du Lac, Fribourg - Freiburg, Schweiz, Suisse, Svizzera, Svizra	7.160155752069812	46.96364887749943	7.235688350508582	46.997167856833215
Lac de Neuchâtel (FR)	boundary	administrative	6.822120800792785	46.859098926554736	16	0.35	Lac de Neuchâtel (FR), District de la Broye, Fribourg - Freiburg, Schweiz, Suisse, Svizzera, Svizra	6.742310586614337	46.808665224707305	6.96168552832799	46.95271007476283
Le Pâquier (FR)	boundary	administrative	7.0547979469579225	46.59357863229529	16	0.35	Le Pâquier (FR), District de la Gruyère, Fribourg - Freiburg, Schweiz, Suisse, Svizzera, Svizra	7.0330003530898475	46.576218956451676	7.069029460967017	46.61133778964415
Meyriez	boundary	administrative	7.099054026376375	46.93045524173733	16	0.35	Meyriez, Seebezirk / District du Lac, Fribourg - Freiburg, Schweiz, Suisse, Svizzera, Svizra	7.0882959359635995	46.919296372132905	7.112364654745364	46.93821541724297
Montagny (FR)	boundary	administrative	6.986444362874809	46.804662237299205	16	0.35	Montagny (FR), Fribourg - Freiburg, Schweiz, Suisse, Svizzera, Svizra	6.955983654875183	46.77630512730626	7.027071497699097	46.83293536062235
Morlon	boundary	administrative	7.09125659986117	46.62415547979613	16	0.35	Morlon, District de la Gruyère, Fribourg - Freiburg, Schweiz, Suisse, Svizzera, Svizra	7.075683434801307	46.612151840080394	7.104079227277395	46.6361556829316
Morens (FR)	boundary	administrative	6.9042586116239075	46.84417327157368	16	0.35	Morens (FR), District de la Broye, Fribourg - Freiburg, Schweiz, Suisse, Svizzera, Svizra	6.888791972103406	46.8346813948724	6.919344260627953	46.85352366174938
Plaffeien	boundary	administrative	7.315838520926553	46.694632449516774	16	0.35	Plaffeien, Sensebezirk, Fribourg - Freiburg, Schweiz, Suisse, Svizzera, Svizra	7.254060727893629	46.635702221969915	7.3802680498056095	46.75384313554383
Plasselb	boundary	administrative	7.238347322956379	46.711089268660075	16	0.35	Plasselb, Sensebezirk, Fribourg - Freiburg, Schweiz, Suisse, Svizzera, Svizra	7.192916085347348	46.6714213670677	7.272905928436701	46.75091567204145
St. Antoni	boundary	administrative	7.274820719581323	46.82486882655572	16	0.35	St. Antoni, Sensebezirk, Fribourg - Freiburg, Schweiz, Suisse, Svizzera, Svizra	7.251175090088084	46.79368399770819	7.320889977172187	46.855680073978824
St. Ursen	boundary	administrative	7.228866960648309	46.788032038488765	16	0.35	St. Ursen, Sensebezirk, Fribourg - Freiburg, Schweiz, Suisse, Svizzera, Svizra	7.175556577141776	46.768142075624624	7.27444509731646	46.80770675407941
Ulmiz	boundary	administrative	7.199775386939688	46.9298349809025	16	0.35	Ulmiz, Seebezirk / District du Lac, Fribourg - Freiburg, Schweiz, Suisse, Svizzera, Svizra	7.186026160938723	46.92097962592823	7.2126836305156425	46.93879754041835
Vallon	boundary	administrative	6.953067928246291	46.88322078660265	16	0.35	Vallon, District de la Broye, Fribourg - Freiburg, Schweiz, Suisse, Svizzera, Svizra	6.9386468616272055	46.86538967061504	6.9694383696683255	46.90122532416695
Villarsel-sur-Marly	boundary	administrative	7.176703928690638	46.76123681233318	16	0.35	Villarsel-sur-Marly, District de la Sarine, Fribourg - Freiburg, Schweiz, Suisse, Svizzera, Svizra	7.161734986446732	46.75552437768237	7.191361326127692	46.76724076957635
Vuissens	boundary	administrative	6.766950355772396	46.734303494322845	16	0.35	Vuissens, District de la Broye, Fribourg - Freiburg, Schweiz, Suisse, Svizzera, Svizra	6.748703380345746	46.71736953534139	6.786266879417865	46.75136225984255
Vuisternens-devant-Romont	boundary	administrative	6.933376557067058	46.654274968750336	16	0.35	Vuisternens-devant-Romont, District de la Glâne, Fribourg - Freiburg, Schweiz, Suisse, Svizzera, Svizra	6.887706683280499	46.613877422486716	6.991834563490869	46.69423397383989
Aetigkofen	boundary	administrative	7.463270050395257	47.122507735585785	20	0.25	Aetigkofen, Buchegg, Bezirk Bucheggberg, Amtei Bucheggberg-Wasseramt, Solothurn, Schweiz, Suisse, Svizzera, Svizra	7.447888550743757	47.114888837058125	7.483379456618137	47.13020173596584
Bolken	boundary	administrative	7.66373441231768	47.193550441861106	16	0.35	Bolken, Bezirk Wasseramt, Amtei Bucheggberg-Wasseramt, Solothurn, Schweiz, Suisse, Svizzera, Svizra	7.645831888052073	47.184521581491175	7.674629173690165	47.201782267058306
Bättwil	boundary	administrative	7.509500135538122	47.492871892224706	16	0.35	Bättwil, Bezirk Dorneck, Amtei Dorneck-Thierstein, Solothurn, Schweiz, Suisse, Svizzera, Svizra	7.49786539695873	47.483343470425616	7.519062140437144	47.50269577611067
Däniken	boundary	administrative	7.974519369205802	47.35084942776687	16	0.35	Däniken, Bezirk Olten, Amtei Olten-Gösgen, Solothurn, Schweiz, Suisse, Svizzera, Svizra	7.958780971871278	47.33400234721182	7.991820338705479	47.36769265264647
Erlinsbach (SO)	boundary	administrative	7.9969284227237685	47.4009209056687	16	0.35	Erlinsbach (SO), Bezirk Gösgen, Amtei Olten-Gösgen, Solothurn, Schweiz, Suisse, Svizzera, Svizra	7.9563084780731685	47.37942714945133	8.027412917065362	47.42238633105334
Feldbrunnen-St. Niklaus	boundary	administrative	7.553035748152807	47.22652036462753	16	0.35	Feldbrunnen-St. Niklaus, Bezirk Lebern, Amtei Solothurn-Lebern, Solothurn, Schweiz, Suisse, Svizzera, Svizra	7.543081573628257	47.211870474260856	7.564833199096738	47.23899548639678
Fulenbach	boundary	administrative	7.829441723963157	47.28019756963652	16	0.35	Fulenbach, Bezirk Olten, Amtei Olten-Gösgen, Solothurn, Schweiz, Suisse, Svizzera, Svizra	7.813906397220593	47.26643062895015	7.84954532750504	47.294469771446174
Gerlafingen	boundary	administrative	7.569676813537532	47.16960795454112	16	0.35	Gerlafingen, Bezirk Wasseramt, Amtei Bucheggberg-Wasseramt, Solothurn, Schweiz, Suisse, Svizzera, Svizra	7.558897219088295	47.16244783948371	7.586703679952252	47.17777875948323
Bibern	boundary	administrative	7.45488386570081	47.14728849704215	20	0.25	Bibern, Buchegg, Bezirk Bucheggberg, Amtei Bucheggberg-Wasseramt, Solothurn, Schweiz, Suisse, Svizzera, Svizra	7.4399503855242415	47.13844257170897	7.473502221918466	47.15633122946187
Kyburg-Buchegg	boundary	administrative	7.51301158312793	47.14300785909144	20	0.25	Kyburg-Buchegg, Buchegg, Bezirk Bucheggberg, Amtei Bucheggberg-Wasseramt, Solothurn, Schweiz, Suisse, Svizzera, Svizra	7.501765747962481	47.13500825452165	7.529750743364019	47.15087318557237
Metzerlen-Mariastein	boundary	administrative	7.470305526140664	47.465626474049685	16	0.35	Metzerlen-Mariastein, Bezirk Dorneck, Amtei Dorneck-Thierstein, Solothurn, Schweiz, Suisse, Svizzera, Svizra	7.4452139692601245	47.44923054943294	7.495141697522513	47.48215877223104
Niederbuchsiten	boundary	administrative	7.779294862654998	47.28871295461808	16	0.35	Niederbuchsiten, Bezirk Gäu, Amtei Thal-Gäu, Solothurn, Schweiz, Suisse, Svizzera, Svizra	7.756389358548801	47.274570378940965	7.799968465709498	47.30279518059232
Neuendorf	boundary	administrative	7.801719810846739	47.29538939195288	16	0.35	Neuendorf, Bezirk Gäu, Amtei Thal-Gäu, Solothurn, Schweiz, Suisse, Svizzera, Svizra	7.778995183769695	47.27993756300009	7.822460632323356	47.314073785683576
Recherswil	boundary	administrative	7.603595795419734	47.16075695815651	16	0.35	Recherswil, Bezirk Wasseramt, Amtei Bucheggberg-Wasseramt, Solothurn, Schweiz, Suisse, Svizzera, Svizra	7.5836423574561715	47.151602327329414	7.624492736038746	47.17019263419699
Seewen	boundary	administrative	7.650915986967956	47.42805740101198	16	0.35	Seewen, Bezirk Dorneck, Amtei Dorneck-Thierstein, Solothurn, Schweiz, Suisse, Svizzera, Svizra	7.599983967340364	47.40907536589959	7.6846899720693225	47.44712937394541
Starrkirch-Wil	boundary	administrative	7.927219143138824	47.34448341421611	16	0.35	Starrkirch-Wil, Bezirk Olten, Amtei Olten-Gösgen, Solothurn, Schweiz, Suisse, Svizzera, Svizra	7.915828076696671	47.33304085909878	7.934545537035377	47.35685778550921
Unterramsern	boundary	administrative	7.480149180104454	47.11878692494801	16	0.35	Unterramsern, Bezirk Bucheggberg, Amtei Bucheggberg-Wasseramt, Solothurn, Schweiz, Suisse, Svizzera, Svizra	7.468997535695934	47.112104033547766	7.49232764117005	47.125662683940305
Witterswil	boundary	administrative	7.526040788730905	47.48656916204291	16	0.35	Witterswil, Bezirk Dorneck, Amtei Dorneck-Thierstein, Solothurn, Schweiz, Suisse, Svizzera, Svizra	7.514489560798891	47.477952565580516	7.536696323609703	47.4973988324002
Arboldswil	boundary	administrative	7.719394665477271	47.416713291347435	16	0.35	Arboldswil, Bezirk Waldenburg, Basel-Landschaft, Schweiz, Suisse, Svizzera, Svizra	7.695906467258056	47.40635879108104	7.734800928735097	47.42643646666676
Birsfelden	boundary	administrative	7.6320090166163705	47.55119510234374	16	0.35	Birsfelden, Basel-Landschaft, Schweiz, Suisse, Svizzera, Svizra	7.617580180491558	47.54071055684965	7.645876479776945	47.56170605083286
Buckten	boundary	administrative	7.848497689429556	47.412396234027405	16	0.35	Buckten, Bezirk Sissach, Basel-Landschaft, Schweiz, Suisse, Svizzera, Svizra	7.833713840248009	47.40369267531963	7.858906320788236	47.420714644284395
Burg im Leimental	boundary	administrative	7.439334763501207	47.452496558004505	16	0.35	Burg im Leimental, Bezirk Laufen, Basel-Landschaft, Schweiz, Suisse, Svizzera, Svizra	7.4209040193049995	47.443283840588435	7.454811751307972	47.46197271863733
Böckten	boundary	administrative	7.83390847749233	47.466867414814516	16	0.35	Böckten, Bezirk Sissach, Basel-Landschaft, Schweiz, Suisse, Svizzera, Svizra	7.824538757577158	47.45673872301964	7.844178478722059	47.478269820615644
Häfelfingen	boundary	administrative	7.867837798401439	47.4152880744413	16	0.35	Häfelfingen, Bezirk Sissach, Basel-Landschaft, Schweiz, Suisse, Svizzera, Svizra	7.849755629455672	47.40072279938718	7.88877548420416	47.42710592927322
Liedertswil	boundary	administrative	7.720211059652124	47.387922375955746	16	0.35	Liedertswil, Bezirk Waldenburg, Basel-Landschaft, Schweiz, Suisse, Svizzera, Svizra	7.706874355198665	47.37801203273854	7.732356179036458	47.397132494981825
Münchenstein	boundary	administrative	7.611044392632925	47.520052560197726	16	0.35	Münchenstein, Basel-Landschaft, Schweiz, Suisse, Svizzera, Svizra	7.591717147697409	47.49928383860487	7.647239963966199	47.54080032703262
Oberhallau	boundary	administrative	8.47457050685831	47.712457638803144	16	0.35	Oberhallau, Bezirk Unterklettgau, Schaffhausen, Schweiz, Suisse, Svizzera, Svizra	8.454232753886773	47.6945575397524	8.490247444890459	47.73012832516407
Pratteln	boundary	administrative	7.693690752258266	47.516021661052065	16	0.35	Pratteln, Bezirk Liestal, Basel-Landschaft, Schweiz, Suisse, Svizzera, Svizra	7.666120871416781	47.49686817411026	7.7206298964967175	47.535182356430596
Rickenbach (BL)	boundary	administrative	7.8513145420245785	47.48608950763379	16	0.35	Rickenbach (BL), Bezirk Sissach, Basel-Landschaft, Schweiz, Suisse, Svizzera, Svizra	7.832985117586104	47.47703508245916	7.865670935744419	47.49571759026163
Schaffhausen	boundary	administrative	8.640475609117459	47.719298445259184	16	0.35	Schaffhausen, Schaffhausen, Schweiz, Suisse, Svizzera, Svizra	8.541003891919614	47.685303248096595	8.705727651475513	47.75308476539472
Schönenbuch	boundary	administrative	7.505097479241636	47.535672194852054	16	0.35	Schönenbuch, Basel-Landschaft, Schweiz, Suisse, Svizzera, Svizra	7.498038399440246	47.52811783697885	7.5157801224305265	47.54312764626781
Tecknau	boundary	administrative	7.894414295125893	47.44289177706747	16	0.35	Tecknau, Bezirk Sissach, Basel-Landschaft, Schweiz, Suisse, Svizzera, Svizra	7.875365361135891	47.42742142410867	7.9083617288067956	47.45876085716025
Thayngen	boundary	administrative	8.71585097469151	47.761006334445945	16	0.35	Thayngen, Schaffhausen, Schweiz, Suisse, Svizzera, Svizra	8.645254399373416	47.72148415224024	8.74142123176864	47.80045358243725
Zwingen	boundary	administrative	7.530218367619851	47.435805925672184	16	0.35	Zwingen, Bezirk Laufen, Basel-Landschaft, Schweiz, Suisse, Svizzera, Svizra	7.505533329619937	47.42368762152099	7.549861443648211	47.447951135732545
Altstätten	boundary	administrative	9.543950333100062	47.36327518012644	16	0.35	Altstätten, Wahlkreis Rheintal, Sankt Gallen, Schweiz, Suisse, Svizzera, Svizra	9.483953833523628	47.268929693381324	9.59320096109721	47.40026824877806
Amden	boundary	administrative	9.165500328311824	47.155303189037625	16	0.35	Amden, Wahlkreis See-Gaster, Sankt Gallen, Schweiz, Suisse, Svizzera, Svizra	9.105963947105975	47.12369989367411	9.237971462194992	47.186787629014106
Appenzell	boundary	administrative	9.39619170061171	47.332710234928115	16	0.35	Appenzell, Appenzell Innerrhoden, Schweiz, Suisse, Svizzera, Svizra	9.371903126976546	47.30427349685501	9.479231720732741	47.36126876205429
Benken (SG)	boundary	administrative	8.99639479054317	47.192988183796245	16	0.35	Benken (SG), Wahlkreis See-Gaster, Sankt Gallen, Schweiz, Suisse, Svizzera, Svizra	8.95748096313909	47.17220479387284	9.035778080882551	47.21280296098891
Bütschwil	boundary	administrative	9.075321120206636	47.354551882036674	20	0.25	Bütschwil, Bütschwil-Ganterschwil, Wahlkreis Toggenburg, Sankt Gallen, Schweiz, Suisse, Svizzera, Svizra	9.04194598815181	47.32380483999187	9.094861529619436	47.38504034236857
Degersheim	boundary	administrative	9.19598197799784	47.38587622766254	16	0.35	Degersheim, Wahlkreis Wil, Sankt Gallen, Schweiz, Suisse, Svizzera, Svizra	9.142251217600887	47.34778236366713	9.222003433735267	47.41029769883936
Ebnat-Kappel	boundary	administrative	9.126358145137807	47.23474640631153	16	0.35	Ebnat-Kappel, Wahlkreis Toggenburg, Sankt Gallen, Schweiz, Suisse, Svizzera, Svizra	9.073798561315671	47.18578649449907	9.191389286765286	47.28368519572799
Eggersriet	boundary	administrative	9.489264743525585	47.44850304214702	16	0.35	Eggersriet, Wahlkreis St. Gallen, Sankt Gallen, Schweiz, Suisse, Svizzera, Svizra	9.429833393474809	47.43082162695005	9.531030038326378	47.466116899204366
Flawil	boundary	administrative	9.19447458982874	47.4065295723582	16	0.35	Flawil, Wahlkreis Wil, Sankt Gallen, Schweiz, Suisse, Svizzera, Svizra	9.156116897106642	47.38442402102824	9.233152957517632	47.42848533907848
Flums	boundary	administrative	9.270809200659805	47.05306689482593	16	0.35	Flums, Wahlkreis Sarganserland, Sankt Gallen, Schweiz, Suisse, Svizzera, Svizra	9.21428713749276	47.00042925535804	9.402617772965556	47.10573948683009
Gaiserwald	boundary	administrative	9.335095300316425	47.4344169604973	16	0.35	Gaiserwald, Wahlkreis St. Gallen, Sankt Gallen, Schweiz, Suisse, Svizzera, Svizra	9.295591933551975	47.413956734850764	9.364022545431823	47.45493585946607
Goldach	boundary	administrative	9.468380080344893	47.475775450050236	16	0.35	Goldach, Wahlkreis Rorschach, Sankt Gallen, Schweiz, Suisse, Svizzera, Svizra	9.44353009381257	47.461968946780885	9.483241120296782	47.489667448731936
Gonten	boundary	administrative	9.348871921588088	47.31498929905769	16	0.35	Gonten, Appenzell Innerrhoden, Schweiz, Suisse, Svizzera, Svizra	9.309713344923553	47.28306359378864	9.397644538355621	47.34709362268335
Grabs	boundary	administrative	9.391481654504394	47.16430103636584	16	0.35	Grabs, Wahlkreis Werdenberg, Sankt Gallen, Schweiz, Suisse, Svizzera, Svizra	9.31760968444624	47.130535754807326	9.476868526952018	47.19819288466231
Gossau (SG)	boundary	administrative	9.259041943780087	47.42533982036504	16	0.35	Gossau (SG), Wahlkreis St. Gallen, Sankt Gallen, Schweiz, Suisse, Svizzera, Svizra	9.212446974470055	47.39594637186374	9.307208161703045	47.4547830573712
Hemberg	boundary	administrative	9.182200472749566	47.29849044466998	16	0.35	Hemberg, Wahlkreis Toggenburg, Sankt Gallen, Schweiz, Suisse, Svizzera, Svizra	9.14453964480532	47.276039726567284	9.224313570068917	47.320901684008696
Herisau	boundary	administrative	9.273266790672725	47.38051926952531	16	0.35	Herisau, Hinterland, Appenzell Ausserrhoden, Schweiz, Suisse, Svizzera, Svizra	9.218726947784745	47.35960109859888	9.327944822516258	47.40124859617324
Häggenschwil	boundary	administrative	9.337606581823788	47.49346436705053	16	0.35	Häggenschwil, Wahlkreis St. Gallen, Sankt Gallen, Schweiz, Suisse, Svizzera, Svizra	9.307924646786319	47.47511495608017	9.374457595787701	47.51200723234615
Hundwil	boundary	administrative	9.313095584957484	47.31059076963885	16	0.35	Hundwil, Hinterland, Appenzell Ausserrhoden, Schweiz, Suisse, Svizzera, Svizra	9.291036620634259	47.24702467908475	9.351501993747348	47.37423347078792
Kaltbrunn	boundary	administrative	9.025946307315357	47.208110645863826	16	0.35	Kaltbrunn, Wahlkreis See-Gaster, Sankt Gallen, Schweiz, Suisse, Svizzera, Svizra	8.981240724969894	47.18510923672266	9.11473619551029	47.23112923790651
Kirchberg (SG)	boundary	administrative	9.026700845050179	47.4095085426556	16	0.35	Kirchberg (SG), Wahlkreis Toggenburg, Sankt Gallen, Schweiz, Suisse, Svizzera, Svizra	8.971479495810142	47.37472196810488	9.082891249878315	47.44423342639897
Lütisburg	boundary	administrative	9.110090910050895	47.396266518655466	16	0.35	Lütisburg, Wahlkreis Toggenburg, Sankt Gallen, Schweiz, Suisse, Svizzera, Svizra	9.059832047514732	47.376973766392425	9.152161476999055	47.41548073248574
Mels	boundary	administrative	9.316085745709373	47.00429331272103	16	0.35	Mels, Wahlkreis Sarganserland, Sankt Gallen, Schweiz, Suisse, Svizzera, Svizra	9.236281335239084	46.927016356412814	9.485229894462748	47.081383855502665
Neckertal	boundary	administrative	9.164871358033347	47.34693118139986	16	0.35	Neckertal, Wahlkreis Toggenburg, Sankt Gallen, Schweiz, Suisse, Svizzera, Svizra	9.117000566652592	47.30000518030198	9.233313973877614	47.39388065182664
Nesslau	boundary	administrative	9.22404021952051	47.22820684545556	16	0.35	Nesslau, Wahlkreis Toggenburg, Sankt Gallen, Schweiz, Suisse, Svizzera, Svizra	9.122824061520475	47.17727576147377	9.323795445169255	47.278889657465314
Oberegg	boundary	administrative	9.548800422799454	47.41244753127485	16	0.35	Oberegg, Appenzell Innerrhoden, Schweiz, Suisse, Svizzera, Svizra	9.508204691061366	47.39308185645421	9.618398722236464	47.44369413474877
Niederhelfenschwil	boundary	administrative	9.171474091486854	47.480578364387696	16	0.35	Niederhelfenschwil, Wahlkreis Wil, Sankt Gallen, Schweiz, Suisse, Svizzera, Svizra	9.118053585148289	47.45733543070656	9.20990474323753	47.504082059076545
Oberbüren	boundary	administrative	9.187285372390575	47.44003082396678	16	0.35	Oberbüren, Wahlkreis Wil, Sankt Gallen, Schweiz, Suisse, Svizzera, Svizra	9.119274660802603	47.410631466223734	9.224310217307647	47.46953336293791
Oberhelfenschwil	boundary	administrative	9.108850775049023	47.34618770658837	16	0.35	Oberhelfenschwil, Wahlkreis Toggenburg, Sankt Gallen, Schweiz, Suisse, Svizzera, Svizra	9.085731876863804	47.31843329734315	9.142680119586261	47.37393314719722
Oberuzwil	boundary	administrative	9.143807947037262	47.419639371835785	16	0.35	Oberuzwil, Wahlkreis Wil, Sankt Gallen, Schweiz, Suisse, Svizzera, Svizra	9.098432220371336	47.39975393519935	9.184035424016002	47.439624134024825
Rheineck	boundary	administrative	9.582446531640178	47.472833946860035	16	0.35	Rheineck, Wahlkreis Rheintal, Sankt Gallen, Schweiz, Suisse, Svizzera, Svizra	9.573916967922997	47.459190429697905	9.594074523045947	47.48645407851233
Rüte	boundary	administrative	9.47330054980646	47.29201286798798	16	0.35	Rüte, Appenzell Innerrhoden, Schweiz, Suisse, Svizzera, Svizra	9.370185675016273	47.2339965193441	9.503021322138864	47.35025594711269
Schlatt-Haslen	boundary	administrative	9.396369964314278	47.36437140733298	16	0.35	Schlatt-Haslen, Appenzell Innerrhoden, Schweiz, Suisse, Svizzera, Svizra	9.343215895727127	47.341550251019584	9.435449268601047	47.387175967478136
Schwende	boundary	administrative	9.39579200681394	47.28524712147485	16	0.35	Schwende, Appenzell Innerrhoden, Schweiz, Suisse, Svizzera, Svizra	9.323214495460292	47.240363161537616	9.46660916128667	47.33017517022278
Schänis	boundary	administrative	9.061859336728888	47.170501507328936	16	0.35	Schänis, Wahlkreis See-Gaster, Sankt Gallen, Schweiz, Suisse, Svizzera, Svizra	9.008068850095412	47.12981113927795	9.122824061520475	47.21103739690444
Schwellbrunn	boundary	administrative	9.234041815015468	47.35111169751717	16	0.35	Schwellbrunn, Hinterland, Appenzell Ausserrhoden, Schweiz, Suisse, Svizzera, Svizra	9.191089466088783	47.328216570908246	9.269502337915071	47.373793420871344
St. Gallen	boundary	administrative	9.386665394937282	47.424120295362826	16	0.35	St. Gallen, Wahlkreis St. Gallen, Sankt Gallen, Schweiz, Suisse, Svizzera, Svizra	9.291506761583264	47.3951581376893	9.435240223935919	47.453077591532484
Teufen (AR)	boundary	administrative	9.389638866310275	47.3924633139095	16	0.35	Teufen (AR), Mittelland, Appenzell Ausserrhoden, Schweiz, Suisse, Svizzera, Svizra	9.339678397311758	47.377057836881285	9.436002474210511	47.407713641910014
Urnäsch	boundary	administrative	9.261328477888416	47.302661531146214	16	0.35	Urnäsch, Hinterland, Appenzell Ausserrhoden, Schweiz, Suisse, Svizzera, Svizra	9.206245791045179	47.25741455098253	9.318735960775655	47.34798319406718
Uznach	boundary	administrative	8.985893988775526	47.225018285669314	16	0.35	Uznach, Wahlkreis See-Gaster, Sankt Gallen, Schweiz, Suisse, Svizzera, Svizra	8.954809734416727	47.208910572793194	9.0070751754742	47.24118257639184
Waldkirch	boundary	administrative	9.304492619181959	47.46055789529114	16	0.35	Waldkirch, Wahlkreis St. Gallen, Sankt Gallen, Schweiz, Suisse, Svizzera, Svizra	9.236018897850727	47.42993096591881	9.36901639952359	47.491095976489824
Walenstadt	boundary	administrative	9.347341705433013	47.121241858659005	16	0.35	Walenstadt, Wahlkreis Sarganserland, Sankt Gallen, Schweiz, Suisse, Svizzera, Svizra	9.238147063066492	47.087577998128864	9.409339053482341	47.15479155766793
Wattwil	boundary	administrative	9.087813785219403	47.29153421940725	20	0.25	Wattwil, Wattwil, Wahlkreis Toggenburg, Sankt Gallen, Schweiz, Suisse, Svizzera, Svizra	9.020358145071327	47.24967688088692	9.153048785268993	47.333289969261095
Widnau	boundary	administrative	9.637980420038488	47.40303691712482	16	0.35	Widnau, Wahlkreis Rheintal, Sankt Gallen, Schweiz, Suisse, Svizzera, Svizra	9.622289936965728	47.38937194229057	9.65189741736458	47.41739306369478
Wildhaus-Alt St. Johann	boundary	administrative	9.31590716832097	47.19723839543843	16	0.35	Wildhaus-Alt St. Johann, Wahlkreis Toggenburg, Sankt Gallen, Schweiz, Suisse, Svizzera, Svizra	9.219231454536754	47.144723886128176	9.40197848521052	47.24961074767087
Wittenbach	boundary	administrative	9.384432416114738	47.46525033614478	16	0.35	Wittenbach, Wahlkreis St. Gallen, Sankt Gallen, Schweiz, Suisse, Svizzera, Svizra	9.350563136772905	47.442253872326454	9.412433233038854	47.49565522890201
Arosa	boundary	administrative	9.699989166138952	46.80161076353937	16	0.35	Arosa, Plessur, Graubünden - Grigioni - Grischun, Schweiz, Suisse, Svizzera, Svizra	9.583215180751436	46.72958255499841	9.807001937200482	46.873602678439596
Avers	boundary	administrative	9.532904807844059	46.44462282517037	16	0.35	Avers, Hinterrhein, Graubünden - Grigioni - Grischun, Schweiz, Suisse, Svizzera, Svizra	9.45445271947605	46.381845387885896	9.61250096370648	46.50792153301319
Bergün/Bravuogn	boundary	administrative	9.794392353946852	46.62158030768413	16	0.35	Bergün/Bravuogn, Albula, Graubünden - Grigioni - Grischun, Schweiz, Suisse, Svizzera, Svizra	9.701366655523374	46.54993456538499	9.887922339180164	46.69310015379764
Bever	boundary	administrative	9.865045750669534	46.55289077881526	16	0.35	Bever, Maloja, Graubünden - Grigioni - Grischun, Schweiz, Suisse, Svizzera, Svizra	9.693468388162954	46.50459098378725	9.93385365982843	46.575022188316545
Bregaglia	boundary	administrative	9.635553657075008	46.36138579088209	16	0.35	Bregaglia, Maloja, Graubünden - Grigioni - Grischun, Schweiz, Suisse, Svizzera, Svizra	9.456283159491079	46.28598684188943	9.784692579894822	46.43704105847382
Davos	boundary	administrative	9.847207066718287	46.76488599960831	16	0.35	Davos, Prättigau/Davos, Graubünden - Grigioni - Grischun, Schweiz, Suisse, Svizzera, Svizra	9.66911602577781	46.67026147930657	9.96706217346869	46.8596587957772
Disentis/Mustér	boundary	administrative	8.852931605454254	46.742770599542084	16	0.35	Disentis/Mustér, Surselva, Graubünden - Grigioni - Grischun, Schweiz, Suisse, Svizzera, Svizra	8.771521568074064	46.67092616422823	8.914858566406622	46.81442627439653
Ferrera	boundary	administrative	9.446809124739234	46.52481882116828	16	0.35	Ferrera, Hinterrhein, Graubünden - Grigioni - Grischun, Schweiz, Suisse, Svizzera, Svizra	9.368448777040669	46.46684023299823	9.531500849827637	46.582858681050574
Filisur	boundary	administrative	9.68379229072466	46.65057159247118	16	0.35	Filisur, Albula, Graubünden - Grigioni - Grischun, Schweiz, Suisse, Svizzera, Svizra	9.646028324943444	46.60126374785797	9.751209391287574	46.70071553192593
Fürstenau	boundary	administrative	9.448304604098038	46.72006909489646	16	0.35	Fürstenau, Hinterrhein, Graubünden - Grigioni - Grischun, Schweiz, Suisse, Svizzera, Svizra	9.440125951476716	46.71097942381901	9.45830495835557	46.728828770446015
Grono	boundary	administrative	9.183002712476632	46.232562560808674	16	0.35	Grono, Moësa, Graubünden - Grigioni - Grischun, Schweiz, Suisse, Svizzera, Svizra	9.132197543839396	46.20841232801855	9.222872217999196	46.25701948743595
La Punt-Chamues-ch	boundary	administrative	9.96043738809026	46.53890892613151	16	0.35	La Punt-Chamues-ch, Maloja, Graubünden - Grigioni - Grischun, Schweiz, Suisse, Svizzera, Svizra	9.824114849814691	46.475722954886386	9.994026336882714	46.60357254308714
Madulain	boundary	administrative	9.996873389668366	46.49947257461433	16	0.35	Madulain, Maloja, Graubünden - Grigioni - Grischun, Schweiz, Suisse, Svizzera, Svizra	9.898793164682019	46.47497386419973	10.025017837133563	46.62792599511969
Maienfeld	boundary	administrative	9.53733914200532	47.01695878751136	16	0.35	Maienfeld, Landquart, Graubünden - Grigioni - Grischun, Schweiz, Suisse, Svizzera, Svizra	9.510212995061721	46.96869612431438	9.63654118401749	47.0651481928746
Medel (Lucmagn)	boundary	administrative	8.87008111093441	46.62753598516505	16	0.35	Medel (Lucmagn), Surselva, Graubünden - Grigioni - Grischun, Schweiz, Suisse, Svizzera, Svizra	8.750408643627395	46.56313044700815	8.969099873499175	46.69194194241711
Mesocco	boundary	administrative	9.193544571268035	46.44162763589034	16	0.35	Mesocco, Moësa, Graubünden - Grigioni - Grischun, Schweiz, Suisse, Svizzera, Svizra	9.078596362692195	46.359840964217724	9.284374181077766	46.523221859066155
Mutten	boundary	administrative	9.494517234651461	46.66883839978576	16	0.35	Mutten, Albula, Graubünden - Grigioni - Grischun, Schweiz, Suisse, Svizzera, Svizra	9.464133230908232	46.64833073256727	9.514001531477135	46.68925914666837
Poschiavo	boundary	administrative	10.051393791707033	46.34312120477185	16	0.35	Poschiavo, Bernina, Graubünden - Grigioni - Grischun, Schweiz, Suisse, Svizzera, Svizra	9.955703688840174	46.24353216703944	10.166883895278175	46.44272348591126
Pontresina	boundary	administrative	9.972247984978466	46.43919503995133	16	0.35	Pontresina, Maloja, Graubünden - Grigioni - Grischun, Schweiz, Suisse, Svizzera, Svizra	9.86963914524486	46.36601918122785	10.054343853223827	46.51226126338129
Rossa	boundary	administrative	9.12646980720578	46.395792832857126	16	0.35	Rossa, Moësa, Graubünden - Grigioni - Grischun, Schweiz, Suisse, Svizzera, Svizra	9.07115147247444	46.339070859610835	9.174588935320429	46.45241204397048
Samnaun	boundary	administrative	10.356051956813662	46.949105185845966	16	0.35	Samnaun, Inn, Graubünden - Grigioni - Grischun, Schweiz, Suisse, Svizzera, Svizra	10.30613027340496	46.897710456890145	10.434230061415464	47.000530760205464
S-chanf	boundary	administrative	10.030181521667478	46.62008065947785	16	0.35	S-chanf, Maloja, Graubünden - Grigioni - Grischun, Schweiz, Suisse, Svizzera, Svizra	9.864391822401132	46.543871934819585	10.102350030183686	46.69624864808671
Samedan	boundary	administrative	9.867524818493106	46.534181197465514	16	0.35	Samedan, Maloja, Graubünden - Grigioni - Grischun, Schweiz, Suisse, Svizzera, Svizra	9.754223356030709	46.360542697151395	9.953675771186399	46.57318663534058
Schiers	boundary	administrative	9.75676424453835	46.99255709762603	16	0.35	Schiers, Prättigau/Davos, Graubünden - Grigioni - Grischun, Schweiz, Suisse, Svizzera, Svizra	9.661464521646822	46.9466085521667	9.830756669889382	47.0385451218493
Seewis im Prättigau	boundary	administrative	9.63689915645156	47.018051452409054	16	0.35	Seewis im Prättigau, Prättigau/Davos, Graubünden - Grigioni - Grischun, Schweiz, Suisse, Svizzera, Svizra	9.591221993757955	46.97356559096307	9.783262124299227	47.06221301802129
Sils im Domleschg	boundary	administrative	9.471856456339136	46.690655655556114	16	0.35	Sils im Domleschg, Hinterrhein, Graubünden - Grigioni - Grischun, Schweiz, Suisse, Svizzera, Svizra	9.442102571883112	46.66951372972445	9.501925639756022	46.71179883867323
Sils im Engadin/Segl	boundary	administrative	9.787214733715086	46.40073379713984	16	0.35	Sils im Engadin/Segl, Maloja, Graubünden - Grigioni - Grischun, Schweiz, Suisse, Svizzera, Svizra	9.674356726918006	46.34047189472628	9.832146892349728	46.46085446448492
Sumvitg	boundary	administrative	8.934477072045379	46.71775246258787	16	0.35	Sumvitg, Surselva, Graubünden - Grigioni - Grischun, Schweiz, Suisse, Svizzera, Svizra	8.877438649335858	46.624332086496025	9.025327188729676	46.811153225026295
Sufers	boundary	administrative	9.388116044660277	46.55061957642185	16	0.35	Sufers, Hinterrhein, Graubünden - Grigioni - Grischun, Schweiz, Suisse, Svizzera, Svizra	9.307087546116378	46.50386167439212	9.41182579651587	46.59946809274111
Tujetsch	boundary	administrative	8.735687699691098	46.657908188499924	16	0.35	Tujetsch, Surselva, Graubünden - Grigioni - Grischun, Schweiz, Suisse, Svizzera, Svizra	8.651063142091715	46.571111359933845	8.806577285535695	46.74478322022262
Urmein	boundary	administrative	9.403617072838411	46.682189639984244	16	0.35	Urmein, Hinterrhein, Graubünden - Grigioni - Grischun, Schweiz, Suisse, Svizzera, Svizra	9.379009639763181	46.661637674407466	9.416949151011636	46.70272618285918
Val Müstair	boundary	administrative	10.374507785675284	46.61063320686341	16	0.35	Val Müstair, Inn, Graubünden - Grigioni - Grischun, Schweiz, Suisse, Svizzera, Svizra	10.238274157168604	46.53070899407587	10.49229401926934	46.69056018567896
Waltensburg/Vuorz	boundary	administrative	9.07495278760072	46.812520145795816	16	0.35	Waltensburg/Vuorz, Surselva, Graubünden - Grigioni - Grischun, Schweiz, Suisse, Svizzera, Svizra	9.033724095509882	46.75298399046854	9.140254396807848	46.871246860733656
Zuoz	boundary	administrative	9.886298753139327	46.61137517293233	16	0.35	Zuoz, Maloja, Graubünden - Grigioni - Grischun, Schweiz, Suisse, Svizzera, Svizra	9.86287268626998	46.47545213559481	10.053991058919252	46.62933432249093
Bezirk Liestal	boundary	administrative	7.741014238241566	47.476211015648644	12	0.45	Bezirk Liestal, Basel-Landschaft, Schweiz, Suisse, Svizzera, Svizra	7.665419473759216	47.41256785349488	7.7927994239251746	47.53978343453962
Ammerswil	boundary	administrative	8.203430468055128	47.367634607967005	16	0.35	Ammerswil, Bezirk Lenzburg, Aargau, Schweiz, Suisse, Svizzera, Svizra	8.189640881132304	47.35797635048775	8.222733724508773	47.37728741720919
Auenstein	boundary	administrative	8.12875715905923	47.41870579546031	16	0.35	Auenstein, Bezirk Brugg, Aargau, Schweiz, Suisse, Svizzera, Svizra	8.097412621219322	47.41057899550989	8.160638993237768	47.426622377279145
Besenbüren	boundary	administrative	8.344097767205525	47.31213475811291	16	0.35	Besenbüren, Bezirk Muri, Aargau, Schweiz, Suisse, Svizzera, Svizra	8.334597682253133	47.302719659644715	8.354571170782409	47.322071294777544
Birrwil	boundary	administrative	8.190497085390678	47.29206035146945	16	0.35	Birrwil, Bezirk Kulm, Aargau, Schweiz, Suisse, Svizzera, Svizra	8.17862379142008	47.27940019918763	8.205119741722854	47.30452076299864
Brunegg	boundary	administrative	8.218637289534655	47.42110406750582	16	0.35	Brunegg, Bezirk Lenzburg, Aargau, Schweiz, Suisse, Svizzera, Svizra	8.207547727615122	47.412705651983046	8.236498150624188	47.429490580726096
Eggenwil	boundary	administrative	8.341013452999508	47.36934581540939	16	0.35	Eggenwil, Bezirk Bremgarten, Aargau, Schweiz, Suisse, Svizzera, Svizra	8.324184760121655	47.3576259869351	8.351961046134164	47.38106296167468
Ennetbaden	boundary	administrative	8.327565452440474	47.479809618138134	16	0.35	Ennetbaden, Bezirk Baden, Aargau, Schweiz, Suisse, Svizzera, Svizra	8.30977987278473	47.47308393712219	8.341533790948262	47.486734536992486
Fislisbach	boundary	administrative	8.29121935009056	47.43670454951139	16	0.35	Fislisbach, Bezirk Baden, Aargau, Schweiz, Suisse, Svizzera, Svizra	8.268699662417164	47.4248640216314	8.314230328093743	47.44782557482299
Hausen (AG)	boundary	administrative	8.206935562452642	47.4628563807794	16	0.35	Hausen (AG), Bezirk Brugg, Aargau, Schweiz, Suisse, Svizzera, Svizra	8.191992843162808	47.452469735914335	8.224268618617883	47.47314361627277
Hellikon	boundary	administrative	7.917241010959639	47.50844739615883	16	0.35	Hellikon, Bezirk Rheinfelden, Aargau, Schweiz, Suisse, Svizzera, Svizra	7.894105117337034	47.49217506270436	7.9437683965543044	47.52366235252794
Islisberg	boundary	administrative	8.440602784562818	47.324922105775386	16	0.35	Islisberg, Bezirk Bremgarten, Aargau, Schweiz, Suisse, Svizzera, Svizra	8.42995289496406	47.31504332042365	8.455099861770066	47.33475479065969
Kaiserstuhl	boundary	administrative	8.419729133490051	47.56775191759192	16	0.35	Kaiserstuhl, Bezirk Zurzach, Aargau, Schweiz, Suisse, Svizzera, Svizra	8.413911943946717	47.56513198611695	8.425632945887457	47.57049967309026
Künten	boundary	administrative	8.327131233946856	47.38783759300512	16	0.35	Künten, Bezirk Baden, Aargau, Schweiz, Suisse, Svizzera, Svizra	8.305572744124845	47.374965043296896	8.3468704648798	47.40115555704803
Leimbach	boundary	administrative	8.167690548109361	47.27487895870631	16	0.35	Leimbach, Bezirk Kulm, Aargau, Schweiz, Suisse, Svizzera, Svizra	8.157710440087982	47.26840683026138	8.182301351437445	47.28073032340223
Magden	boundary	administrative	7.814995496031527	47.51839340437404	16	0.35	Magden, Bezirk Rheinfelden, Aargau, Schweiz, Suisse, Svizzera, Svizra	7.783078176443581	47.4967605504735	7.835293745177181	47.53988913033863
Muhen	boundary	administrative	8.063245966947356	47.33403709020047	16	0.35	Muhen, Bezirk Aarau, Aargau, Schweiz, Suisse, Svizzera, Svizra	8.041127135580778	47.320881567441084	8.086075594262951	47.34731339618456
Mägenwil	boundary	administrative	8.231420244106161	47.41425626216065	16	0.35	Mägenwil, Bezirk Baden, Aargau, Schweiz, Suisse, Svizzera, Svizra	8.21627136098101	47.402244617727376	8.250614281396766	47.42645323047311
Oberrüti	boundary	administrative	8.397165326882316	47.16958117436049	16	0.35	Oberrüti, Bezirk Muri, Aargau, Schweiz, Suisse, Svizzera, Svizra	8.377995572667233	47.15315155449299	8.41538036956368	47.18389503422895
Rekingen	boundary	administrative	8.321396203599207	47.56779441384102	16	0.35	Rekingen, Bezirk Zurzach, Aargau, Schweiz, Suisse, Svizzera, Svizra	8.305392030292438	47.556962145093735	8.337293637589852	47.57884419297562
Rüfenach	boundary	administrative	8.211351847016616	47.50272444221954	16	0.35	Rüfenach, Bezirk Brugg, Aargau, Schweiz, Suisse, Svizzera, Svizra	8.191938444611196	47.49189477186225	8.232479950061816	47.51391193602328
Staufen	boundary	administrative	8.16361198868942	47.38112394002025	16	0.35	Staufen, Bezirk Lenzburg, Aargau, Schweiz, Suisse, Svizzera, Svizra	8.144029916823316	47.36514815830007	8.17432404273012	47.3975043162066
Teufenthal	boundary	administrative	8.12989722277203	47.32687659795738	16	0.35	Teufenthal, Bezirk Kulm, Aargau, Schweiz, Suisse, Svizzera, Svizra	8.109926718838324	47.318699590406936	8.148082818464816	47.33533247142643
Uezwil	boundary	administrative	8.277990219456324	47.31284315465964	16	0.35	Uezwil, Bezirk Bremgarten, Aargau, Schweiz, Suisse, Svizzera, Svizra	8.2651185781053	47.301696061629166	8.28937236930915	47.3240743181789
Veltheim	boundary	administrative	8.145355738749032	47.429659434165515	16	0.35	Veltheim, Bezirk Brugg, Aargau, Schweiz, Suisse, Svizzera, Svizra	8.12431903332049	47.41711335958591	8.16543419622431	47.44320077592797
Wallbach	boundary	administrative	7.8961022245825445	47.56799268776057	16	0.35	Wallbach, Bezirk Rheinfelden, Aargau, Schweiz, Suisse, Svizzera, Svizra	7.878058298987469	47.55237581913426	7.911578116511579	47.583947347084745
Bezirk Sissach	boundary	administrative	7.8689214559101615	47.45458386144229	12	0.45	Bezirk Sissach, Basel-Landschaft, Schweiz, Suisse, Svizzera, Svizra	7.775017970713862	47.374148226832666	7.961831649350331	47.53523507860154
Bezirk Laufen	boundary	administrative	7.511014557045016	47.42502897748585	12	0.45	Bezirk Laufen, Basel-Landschaft, Schweiz, Suisse, Svizzera, Svizra	7.325280585692524	47.37939622022861	7.626072221872761	47.470445481641214
Aadorf	boundary	administrative	8.917266890063622	47.499560148042974	16	0.35	Aadorf, Bezirk Münchwilen, Thurgau, Schweiz, Suisse, Svizzera, Svizra	8.880981931264415	47.45973625923254	8.942563690061178	47.54046873894312
Altnau	boundary	administrative	9.258983849554237	47.60496090406928	16	0.35	Altnau, Bezirk Kreuzlingen, Thurgau, Schweiz, Suisse, Svizzera, Svizra	9.238796828200492	47.58553622065032	9.281047152251093	47.623867753510204
Arbon	boundary	administrative	9.425735895603335	47.515858130121146	16	0.35	Arbon, Bezirk Arbon, Thurgau, Schweiz, Suisse, Svizzera, Svizra	9.400402435956806	47.4961760803652	9.441564872794515	47.53556574468174
Bichelsee-Balterswil	boundary	administrative	8.926625665870876	47.45207486445584	16	0.35	Bichelsee-Balterswil, Bezirk Münchwilen, Thurgau, Schweiz, Suisse, Svizzera, Svizra	8.894248220874232	47.42819356502903	8.952524157059372	47.473961019470266
Bottighofen	boundary	administrative	9.210239927033328	47.633259759835155	16	0.35	Bottighofen, Bezirk Kreuzlingen, Thurgau, Schweiz, Suisse, Svizzera, Svizra	9.197920884813241	47.62175819611951	9.220542887107285	47.64478102102327
Bussnang	boundary	administrative	9.108996767026094	47.53803392179973	16	0.35	Bussnang, Bezirk Weinfelden, Thurgau, Schweiz, Suisse, Svizzera, Svizra	9.040280252534131	47.509149087183005	9.142021469634898	47.566953541314625
Egnach	boundary	administrative	9.365046942857724	47.52685619291316	16	0.35	Egnach, Bezirk Arbon, Thurgau, Schweiz, Suisse, Svizzera, Svizra	9.321460246945096	47.50078009214039	9.406350569724852	47.55254295428359
Erlen	boundary	administrative	9.232069754495136	47.55241710000743	16	0.35	Erlen, Bezirk Weinfelden, Thurgau, Schweiz, Suisse, Svizzera, Svizra	9.198976082603766	47.52914235700376	9.265407778214808	47.575544824429414
Fischingen	boundary	administrative	8.946468818735678	47.41230679912056	16	0.35	Fischingen, Bezirk Münchwilen, Thurgau, Schweiz, Suisse, Svizzera, Svizra	8.903464961603818	47.37591697604031	8.999854417347308	47.448680948041876
Gottlieben	boundary	administrative	9.126124698772074	47.6644233824677	16	0.35	Gottlieben, Bezirk Kreuzlingen, Thurgau, Schweiz, Suisse, Svizzera, Svizra	9.116485666340651	47.662505980207214	9.139006163787258	47.66640306226873
Homburg	boundary	administrative	8.985045867744931	47.63225891868674	16	0.35	Homburg, Bezirk Frauenfeld, Thurgau, Schweiz, Suisse, Svizzera, Svizra	8.928777219540422	47.609198920042346	9.038000961604155	47.655294190716745
Horn	boundary	administrative	9.460021621150293	47.49298223997999	16	0.35	Horn, Bezirk Arbon, Thurgau, Schweiz, Suisse, Svizzera, Svizra	9.448084317082873	47.48417956526717	9.47697128908493	47.50141711678157
Hüttlingen	boundary	administrative	8.986878938620977	47.575278950460756	16	0.35	Hüttlingen, Bezirk Frauenfeld, Thurgau, Schweiz, Suisse, Svizzera, Svizra	8.951081882980304	47.56009613869031	9.018691068349142	47.59046469589731
Kemmental	boundary	administrative	9.14357016165448	47.609327414618	16	0.35	Kemmental, Bezirk Kreuzlingen, Thurgau, Schweiz, Suisse, Svizzera, Svizra	9.098765233384427	47.58319481981781	9.184474049009083	47.63554726503027
Rickenbach (TG)	boundary	administrative	9.048117443632846	47.44711206531535	16	0.35	Rickenbach (TG), Bezirk Münchwilen, Thurgau, Schweiz, Suisse, Svizzera, Svizra	9.036244282337066	47.44014339292641	9.062547365047806	47.453845122406065
Schönholzerswilen	boundary	administrative	9.133051936157127	47.513706411757475	16	0.35	Schönholzerswilen, Bezirk Weinfelden, Thurgau, Schweiz, Suisse, Svizzera, Svizra	9.09473018519671	47.49390869173777	9.164882942902578	47.533579317448655
Wigoltingen	boundary	administrative	9.039697961738458	47.5993578532549	16	0.35	Wigoltingen, Bezirk Weinfelden, Thurgau, Schweiz, Suisse, Svizzera, Svizra	9.006556670943894	47.57459557389505	9.103012176084377	47.624628495042224
Wuppenau	boundary	administrative	9.109201626344746	47.49632251221365	16	0.35	Wuppenau, Bezirk Weinfelden, Thurgau, Schweiz, Suisse, Svizzera, Svizra	9.081910148111831	47.47970932866665	9.165867984163555	47.51284198608319
Verwaltungsregion Oberland	boundary	administrative	7.836012672866794	46.581602233764855	10	0.5	Verwaltungsregion Oberland, Bern - Berne, Schweiz, Suisse, Svizzera, Svizra	7.192547449245779	46.326518875789446	8.455157361625849	46.836613172096804
Verwaltungsregion Emmental-Oberaargau	boundary	administrative	7.704111586963059	47.0399933470796	10	0.5	Verwaltungsregion Emmental-Oberaargau, Bern - Berne, Schweiz, Suisse, Svizzera, Svizra	7.504559939204397	46.785617589370126	7.9562035366454325	47.29399183532722
Airolo	boundary	administrative	8.593527710024649	46.53890565718929	16	0.35	Airolo, Circolo di Airolo, Distretto di Leventina, Ticino, Schweiz, Suisse, Svizzera, Svizra	8.513060135481709	46.49108078079505	8.705309897421332	46.58678627323958
Bedretto	boundary	administrative	8.490994159303202	46.49477020120544	16	0.35	Bedretto, Circolo di Airolo, Distretto di Leventina, Ticino, Schweiz, Suisse, Svizzera, Svizra	8.382040762957786	46.45065025174246	8.558909145840829	46.53890138241865
Blenio	boundary	administrative	8.900867286329914	46.55070653866726	16	0.35	Blenio, Circolo d'Olivone, Distretto di Blenio, Ticino, Schweiz, Suisse, Svizzera, Svizra	8.767879547326148	46.46865357393077	9.04388262688005	46.63248826501707
Breggia	boundary	administrative	9.059220561154012	45.88978680982265	16	0.35	Breggia, Circolo di Caneggio, Distretto di Mendrisio, Ticino, Schweiz, Suisse, Svizzera, Svizra	9.01399326307748	45.85223064491584	9.089088745265768	45.92752855006575
Brione (Verzasca)	boundary	administrative	8.770880223855954	46.29955454473735	16	0.35	Brione (Verzasca), Circolo della Verzasca, Distretto di Locarno, Ticino, Schweiz, Suisse, Svizzera, Svizra	8.68156254080722	46.244329872764474	8.83330642038473	46.35447612709148
Brione sopra Minusio	boundary	administrative	8.819796259021249	46.194813947405	16	0.35	Brione sopra Minusio, Circolo della Navegna, Distretto di Locarno, Ticino, Schweiz, Suisse, Svizzera, Svizra	8.79093573220456	46.181350347794485	8.837491169363147	46.20887542816886
Cadempino	boundary	administrative	8.934282842788306	46.03457886463657	16	0.35	Cadempino, Circolo di Vezia, Distretto di Lugano, Ticino, Schweiz, Suisse, Svizzera, Svizra	8.927030933833237	46.02945542632179	8.94086476210694	46.039529551926975
Cadenazzo	boundary	administrative	8.953265265799686	46.14781820887269	16	0.35	Cadenazzo, Circolo di Giubiasco, Distretto di Bellinzona, Ticino, Schweiz, Suisse, Svizzera, Svizra	8.918853381459117	46.13080277779239	8.981114744965197	46.16435712875758
Castel San Pietro	boundary	administrative	9.026067899696539	45.89010092164408	16	0.35	Castel San Pietro, Circolo di Balerna, Distretto di Mendrisio, Ticino, Schweiz, Suisse, Svizzera, Svizra	8.982353674073266	45.851379546467584	9.042932035241137	45.929026144705745
Cevio	boundary	administrative	8.54030246855755	46.37517565607364	16	0.35	Cevio, Circolo della Rovana, Distretto di Vallemaggia, Ticino, Schweiz, Suisse, Svizzera, Svizra	8.456883195489269	46.27603752282244	8.68156254080722	46.47449643099498
Comunanza Cadenazzo/Monteceneri	boundary	administrative	9.058286015638254	46.14090460558762	16	0.35	Comunanza Cadenazzo/Monteceneri, Circolo di Giubiasco, Distretto di Bellinzona, Ticino, Schweiz, Suisse, Svizzera, Svizra	9.032630927697994	46.131767870123795	9.068442441368774	46.14978963249909
Cugnasco-Gerra	boundary	administrative	8.806836649838623	46.31359557365751	16	0.35	Cugnasco-Gerra, Circolo della Navegna, Distretto di Locarno, Ticino, Schweiz, Suisse, Svizzera, Svizra	8.764024374780519	46.16143704132999	8.942714564318322	46.33557602508265
Cureglia	boundary	administrative	8.943889687428456	46.037149342882806	16	0.35	Cureglia, Circolo di Vezia, Distretto di Lugano, Ticino, Schweiz, Suisse, Svizzera, Svizra	8.938195796498434	46.02855981996767	8.950340587463643	46.04566024354616
Faido	boundary	administrative	8.82653123614421	46.45165260163347	16	0.35	Faido, Circolo di Faido, Distretto di Leventina, Ticino, Schweiz, Suisse, Svizzera, Svizra	8.706255459918339	46.37839455834938	8.929091540909441	46.52517911727623
Gambarogno	boundary	administrative	8.826181064561336	46.11702016294712	16	0.35	Gambarogno, Circolo del Gambarogno, Distretto di Locarno, Ticino, Schweiz, Suisse, Svizzera, Svizra	8.756119485716624	46.074072380733426	8.939976699465717	46.16002192461719
Gnosca	boundary	administrative	9.001287116304932	46.23777115925973	16	0.35	Gnosca, Circolo del Ticino, Distretto di Bellinzona, Ticino, Schweiz, Suisse, Svizzera, Svizra	8.969400280908928	46.22521653513887	9.034106058837494	46.251345441901655
Lago di Lugano	boundary	administrative	8.957107937880776	45.96086618692435	16	0.35	Lago di Lugano, Distretto di Lugano, Ticino, Schweiz, Suisse, Svizzera, Svizra	8.85920516008639	45.90495407316271	9.024692343383323	46.016771595163505
Lago Maggiore	boundary	administrative	8.771122015369361	46.13880757914215	16	0.35	Lago Maggiore, Distretto di Locarno, Ticino, Schweiz, Suisse, Svizzera, Svizra	8.696734037008383	46.098042779790966	8.865710438958388	46.17992399933143
Lamone	boundary	administrative	8.932529530219025	46.045376348485675	16	0.35	Lamone, Circolo di Vezia, Distretto di Lugano, Ticino, Schweiz, Suisse, Svizzera, Svizra	8.924379821678514	46.03397863655033	8.940368972534229	46.0562102936136
Lavertezzo	boundary	administrative	8.868976597596504	46.28253823355723	16	0.35	Lavertezzo, Circolo della Verzasca, Distretto di Locarno, Ticino, Schweiz, Suisse, Svizzera, Svizra	8.790427537415155	46.1745184261558	8.925705922579596	46.32689488796583
Lavizzara	boundary	administrative	8.652213938014327	46.41276832416881	16	0.35	Lavizzara, Circolo di Lavizzara, Distretto di Vallemaggia, Ticino, Schweiz, Suisse, Svizzera, Svizra	8.531509626375936	46.32491717791203	8.742094550050552	46.50059776129634
Maggia	boundary	administrative	8.676214254335587	46.26448265020262	16	0.35	Maggia, Circolo della Maggia, Distretto di Vallemaggia, Ticino, Schweiz, Suisse, Svizzera, Svizra	8.569268842887169	46.2041178599276	8.776028182134354	46.32491717791203
Massagno	boundary	administrative	8.942954291972843	46.01253777014199	16	0.35	Massagno, Circolo di Vezia, Distretto di Lugano, Ticino, Schweiz, Suisse, Svizzera, Svizra	8.935629760660902	46.008166565727485	8.951216831621393	46.01725464424337
Muralto	boundary	administrative	8.802611456905346	46.174587912133106	16	0.35	Muralto, Circolo di Locarno, Distretto di Locarno, Ticino, Schweiz, Suisse, Svizzera, Svizra	8.7945402858453	46.17062922308328	8.810336988204169	46.178371587044666
Origlio	boundary	administrative	8.945234782811436	46.05114234349777	16	0.35	Origlio, Circolo di Capriasca, Distretto di Lugano, Ticino, Schweiz, Suisse, Svizzera, Svizra	8.933734193258204	46.04205485171509	8.958529455407074	46.059787019335765
Ponte Tresa	boundary	administrative	8.8588420903843	45.97204253279689	16	0.35	Ponte Tresa, Circolo della Magliasina, Distretto di Lugano, Ticino, Schweiz, Suisse, Svizzera, Svizra	8.853784583304076	45.966990634025656	8.863769525459531	45.975889197710806
Prato (Leventina)	boundary	administrative	8.728608165247284	46.47868260489692	16	0.35	Prato (Leventina), Circolo di Quinto, Distretto di Leventina, Ticino, Schweiz, Suisse, Svizzera, Svizra	8.691578160728312	46.45833452911482	8.770770046635533	46.498877375669984
Verwaltungsregion Bern-Mittelland	boundary	administrative	7.495780011032688	46.89680797737546	10	0.5	Verwaltungskreis Bern-Mittelland, Verwaltungsregion Bern-Mittelland, Bern - Berne, Schweiz, Suisse, Svizzera, Svizra	7.082644940663044	46.670853828403814	7.732348635323602	47.12268467756177
Sant'Antonino	boundary	administrative	8.980571427796336	46.15147795734583	16	0.35	Sant'Antonino, Circolo di Giubiasco, Distretto di Bellinzona, Ticino, Schweiz, Suisse, Svizzera, Svizra	8.931492872349594	46.136986778315766	8.999049922280733	46.16589587854218
